city,place_name,latitude,longitude
Sofia,Фабрика ДЪГА / Rainbow Factory,42.6988287,23.3259482
Sofia,2 Giraffes,42.694965,23.3216958
Sofia,Chucky's Coffee House,42.6918475,23.3210349999999
Sofia,Percolate Coffee,42.6932212,23.3440409
Sofia,Drekka,42.6913794,23.3233668
Sofia,Chucky's Coffee Store,42.6650701,23.286343
Sofia,Фабрика ДЪГА 2 / Rainbow Factory 2,42.6923381,23.3386015
Sofia,From Barista Coffee and more,42.6221904,23.3677074
Sofia,DABOV Specialty Coffee,42.6858385,23.3243766000001
Sofia,Columbus Coffee Labs,42.6896035,23.3278350000001
Sofia,Barista coffee and more,42.6706333,23.3157947
Split,D16 Coffee,43.5088138,16.4401539
Split,kava37 | Specialty Coffee Shop Hvar,43.1708658,16.4417571
Split,4coffee soul food - Specialty Coffee Shop,43.5088202,16.4416838
Split,Malo Misto,43.4442513,16.6409791999999
Dallas,Coffee House Cafe,32.997938,-96.7991319
Dallas,Stupid Good Coffee,32.782646,-96.7953556
Dallas,Ascension Coffee (Crescent),32.7937823,-96.8038113
Dallas,Ascension Coffee (Design District),32.7970216,-96.8199707
Dallas,Ascension Coffee (Roastery),32.8005867,-96.8397611
Dallas,Crooked Tree,32.7957169,-96.8008169
Dallas,Weekend Coffee (Joule Hotel),32.7802859,-96.7983363
Dallas,FULL CITY ROOSTER Coffee Roasting Studio,32.767665,-96.789791
Dallas,Mudsmith,32.8152957,-96.7698918
Dallas,Davis Street Espresso (Oak Cliff Coffee Roasters),32.749657,-96.836709
Dallas,Sip | Stir Cafe,32.8090587,-96.7951039
Dallas,Cultivar Coffee Bar & Roaster (Dallas),32.8391169,-96.6976459
Dallas,Cultivar Coffee Bar & Roaster (Denton),33.2143272,-97.1352526
Dallas,Avoca Coffee Roasters,32.7501051,-97.3561203
Dallas,Café Victoria,32.7882983,-96.8091855
Dallas,Local Press + Brew,32.7640659,-96.8233452
Dallas,Magnolias Sous Le Pont,32.7934512,-96.8078687
Dallas,Method Coffee,32.7951717,-96.7890209
Dallas,Society Coffee,32.84432,-97.082258
Dallas,Pearl Cup Coffee,32.9922615,-96.7273905
Dallas,Oddfellows,32.7488421,-96.827384
Dallas,BREWED,32.730439,-97.332642
Dallas,Buon Giorno Coffee,32.749415,-97.336295
Dallas,Craftwork Coffee Co.,32.7304751,-97.3375553
Dallas,1418 Coffeehouse,33.0192979,-96.6990051
Dallas,Eiland Coffee Roasters,32.957472,-96.727206
Dallas,Seven Mile Cafe (Highland Village),33.0723347,-97.0598489
Dallas,Seven Mile Cafe (Denton),33.2191474,-97.1352828
Dallas,Seven Mile Cafe (Keller),32.9324774,-97.2540132
Dallas,Houndstooth Coffee (Sylvan|Thirty),32.7692586,-96.8355088
Dallas,State Street Coffee,32.7975654,-96.7978572
Dallas,Houndstooth Coffee (Walnut Hill),32.8808429,-96.7692087
Dallas,Civil Pour,32.8821019,-96.7673376
Dallas,Merit Coffee,32.8204254,-96.8019668
Dallas,Noble Coyote Coffee Roasters,32.7822861,-96.7673403
Dallas,White Rock Coffee,32.8646045,-96.7123204
Dallas,Fiction Coffee,32.7951048,-96.7890086
Dallas,WFM Coffee Bar,32.7957855,-96.8014571
Dallas,HANDS+ROSE COFFEE,32.7985446,-96.8280332
Dallas,Ascension Coffee (Thanksgiving Tower),32.7819574,-96.798096
Dallas,Houndstooth Coffee (Henderson Ave),32.8115598,-96.774509
Dallas,Oak Lawn Coffee,32.8063456,-96.8113273
Dallas,Cultivar Coffee Bar & Roaster (Oak Cliff),32.7433492,-96.8268464
Dallas,Drugstore Cowboy,32.7840406,-96.7835544
Hoi_An,Hoi An Roastery (the coffee corner),15.8770351,108.3286812
Hoi_An,Hoi An Roastery (hidden in a small alley),15.8777481,108.3268596
Hoi_An,The Espresso Station,15.8802172,108.3283638
Hoi_An,Hoi An Roastery (original shop),15.8770361,108.3287895
Hoi_An,CocoBox,15.8766966,108.3286016
Hoi_An,Faifo Coffee,15.8772064,108.3280961
Hoi_An,Sound Of Silence Coffee Shop,15.9087804,108.3472957
Hoi_An,Rosie's cafe,15.877663,108.325648
Hoi_An,Mia Coffee,15.8772264,108.3344811
Hoi_An,Hoi An Roastery - Japanese Bridge,15.8773141,108.3306231
Hoi_An,Cavalry Coffee,15.8584285,108.38226
Hoi_An,T'Aroma Coffee,15.8764869,108.3293155
Hoi_An,Bosgaurus Coffee Roasters,15.8764556,108.3274666
Hoi_An,Phin Coffee Hoi An,15.8777128,108.3279222
Hoi_An,FeFe Roastery,15.8779299,108.3266864
Istanbul,Espressolab Taksim,41.036082,28.984136
Istanbul,Espressolab Grandpera,41.0345515,28.9776792
Istanbul,Espressolab Tünel,41.0296305,28.9754492
Istanbul,Drip Coffee Istanbul,41.0289618,28.9734691
Istanbul,Kronotrop Cihangir,41.0313703,28.9824140000001
Istanbul,Probador Colectiva,41.028993,28.979997
Istanbul,Norm Coffee,41.031989,28.985327
Istanbul,Coffee Brew Lab,41.0320996,28.978345
Istanbul,Coffee Sapiens (Roastery & Brew Bar),41.025952,28.981298
Istanbul,Coffee Sapiens (Roastery & Workshop),41.0416215,28.950887
Istanbul,Coffee Department,41.032933,28.9457629999999
Istanbul,Petra Roasting Co.,41.062116,29.009512
Istanbul,Montag Coffee Roasters,40.9900853,29.0242357
Istanbul,Rafine Espresso Bar,40.986571,29.025705
Istanbul,Cup Of Joy,41.0650195,29.0178913
Istanbul,Geyik Coffee Roastery & Cocktail Bar,41.030329,28.98375
Istanbul,COFFEETOPIA,41.016471,28.973336
Istanbul,Four Letter Word Coffee,40.8805354,29.0689455
Istanbul,Short Black,41.0245792,28.9794214
Istanbul,Karabatak,41.0252753,28.9792916
Istanbul,Latife Türk Kahvecisi,41.02648,28.9746259999999
Istanbul,Drip Coffeeist,40.963737,29.075225
Istanbul,Çekirdek Coffee,40.984571,29.027788
Istanbul,Twins Coffee Roasters,41.036921,28.98983
Istanbul,Ministry of coffee,41.0492744,28.9959954999999
Istanbul,At origin Coffee Shop & Roastery,41.057209,29.01121
Istanbul,Coffee Manifesto Kadıköy,40.9891789,29.024166
Istanbul,Coffee Manifesto Moda,40.985577,29.026202
Istanbul,CoffeeNutzLAB,40.979856,29.090269
Istanbul,Federal Coffee Company,39.914133,32.8082761000001
Istanbul,LOL Coffee Roasters,41.0261062,28.9814478
Istanbul,Mambocino,41.0437798,29.0035179
Istanbul,Walter's Coffee Roastery,40.9848144,29.0260909
Istanbul,Dört Kadıköy,40.985352,29.026219
Istanbul,PLETHORA OF COFFEE,40.9734721,29.041579
Istanbul,But First Coffee,41.0565519,28.9813918
Istanbul,Just Coffee Beşiktaş,41.043745512668,29.0035391473721
Istanbul,Espressolab Boğaziçi,41.0850726,29.0455474
Istanbul,Espressolab Etiler,41.0810245,29.0356294000001
Istanbul,Espressolab Vadi İstanbul,41.113709,28.9852550000001
Istanbul,Fatih Espressolab,41.0173621,28.9495561
Istanbul,Espressolab Watergarden AVM,40.9982516,29.0991733
Istanbul,Espressolab,41.0421545,28.9895365
Istanbul,Espressolab Karaköy,41.0218955,28.9757285000001
Istanbul,Mambocino Coffee,41.038224,28.9325635
Istanbul,Mambocino Café,40.9785001,28.8710510999999
Istanbul,Mambocino Coffee,41.059408,28.9870129999999
Istanbul,Mambocino,41.0228074,28.9758477
Istanbul,Federal Coffee +,41.051387,28.99666
Istanbul,Federal Beşiktaş,41.043013,29.006302
Istanbul,Federal Galata,41.0262336,28.9736345
Istanbul,Federal Karaköy,41.0240828,28.9782814
Istanbul,Brew Coffeeworks Sirkeci,41.01579,28.9738901000001
Istanbul,Black Cup Coffee Karaköy,41.023675,28.977975
Istanbul,Black Cup Coffee,41.039271,28.995489
Istanbul,1 Coffee,41.0316842,28.9840611
Istanbul,Coffee Jupiter,41.032156,28.988277
Istanbul,İlmisimya Cafe & Art Space,41.025106,28.978731
Istanbul,Press Karakoy,41.0245921,28.9782516
Istanbul,BORDERLINE COFFEE,41.050912,28.994911
Istanbul,Magado Coffee,41.052691,28.9935424
Istanbul,Moc coffee roastery,41.0542358,28.9875288000001
Istanbul,Molecule Roastery / Design,41.068945,29.005902
Istanbul,Aklime Polat Kahveleri,41.064048,28.89292
Istanbul,Espressolab Haliç Üniversitesi,41.0566406,28.9515156
Istanbul,Espressolab Kadir Has Üniversitesi,41.025165,28.9590470000001
Istanbul,ESPRESSOLAB ZORLU METRO,41.0668186,29.0130429
Istanbul,EspressoLab - İTÜ Ayazağa Kampüsü,41.1054139,29.0234914
Istanbul,KİMMA COFFEE ROASTERS,41.091868,29.001143
Istanbul,Troika Roasting co.,41.096687,29.005313
Istanbul,Double Pause Coffee,40.962972,29.076563
Istanbul,Filtre Coffee Shop,40.967461,29.0879640000001
Istanbul,Kamarad Coffee Roastery,40.99534,29.029552
Istanbul,SECCOCAFE,40.9636176,29.0750554
Istanbul,Cargo Coffee Co.,40.9945983,29.1106540000001
Istanbul,Del Fiano Coffee,41.0863375,29.1350214
Istanbul,Espresso Perfetto,41.09271,29.096619
Istanbul,Eftalikus Pera,41.0292081,28.9729237
Istanbul,Noir Pit,41.029003,28.97313
Istanbul,Noir Pit Coffee Co. Göktürk,41.1772998,28.8876643
Istanbul,Noir Pit,40.9849406,29.0277594
Istanbul,Runner Up,41.0346506,28.9923013
Istanbul,Espressolab Üsküdar Bulgurlu,41.0177907,29.0784041
Istanbul,Espressolab Şirinevler Meydan,40.9924131,28.8448013
Istanbul,Espressolab Çobançeşme,40.9921798,28.8326241
Istanbul,Espressolab G Hub Sefaköy,40.9995128,28.7965941
Istanbul,Espressolab Gaziosmanpaşa Meydan,41.0579479,28.9124989
Istanbul,Espressolab Meydan Başakşehir,41.105358,28.795308
Istanbul,Espressolab Sarıyer Merkez,41.1674387,29.0574952
Istanbul,Espressolab,41.017794,29.2025328
Istanbul,Espressolab Mecidiyeköy Damak,41.0676632,28.9947078
Miami,Panther Coffee (Wynwood),25.7998834,-80.1992955
Miami,Panther Coffee (Sunset Harbour),25.7945769,-80.1443299
Miami,Panther Coffee (Coconut Grove),25.727636,-80.242368
Miami,Cafe Curuba,25.7472045,-80.2589521
Miami,ALL DAY,25.7845085,-80.1938257
Miami,Box Coffee,25.802385,-80.198638
Miami,Brothers & Brawlers by DIROCCO,25.8030003,-80.2024043
Miami,Eternity Coffee Roasters,25.7729991,-80.1900342
Miami,Macondo Coffee Roasters,25.7963269,-80.3429773
Miami,MIAM,25.8025919,-80.2013279
Miami,Vice City Bean,25.7915504,-80.1940916
Miami,White Rose Coffee,25.763111,-80.2971726
Miami,Puroast Coffee,25.7676833,-80.193495
Miami,Café Demetrio,25.7517643,-80.2609001
Miami,Mister Block Cafe,25.801825,-80.198745
Miami,Sweat Records,25.8263467,-80.1917617
Miami,Warsaw Coffee Company,26.142637,-80.135242
Miami,Brew Urban Cafe,26.1293361,-80.1449396
Miami,The Grind Coffee Project,26.1148478,-80.145652
Miami,Subculture Coffee,26.7135101,-80.0557741
Miami,The Seed,26.350844,-80.0892075
Miami,Oceana Coffee Roasters,26.9572101,-80.0872744
Miami,Rabbit Coffee Roasting Company,26.7736424,-80.0771918
Miami,Argyle Coffee Roasters,26.123261,-80.151821
Miami,Calusa Coffee Roasters,26.1889229,-80.1451775
Miami,The Chosen Bean,26.1595014,-80.1848985
Miami,Mane Coffee,26.3857131,-80.0776518
Taipei,Fika Fika Cafe,25.0504815,121.5352799
Taipei,Ontheway Cafe,25.0317707,121.5550578
Taipei,KITE COFFEE,25.0306848,121.5568515
Taipei,Simple Kaffa Huashan Flagship Store,25.0439031,121.5276904
Taipei,Instil Coffee - Zhongshan（中山店）,25.0521457,121.5183005
Taipei,NOTCH Cafe Bending,25.0453596,121.5133704
Taipei,MKCR / Mountain Kids Coffee Roaster 山小孩咖啡,25.0474238,121.5108841
Taipei,SIDOLI RADIO 小島裡,25.0521594,121.5112881
Taipei,Simple Kaffa Super Kiosk Taoyuan Airport Shop,25.0775859,121.2321088
Taipei,VWI BY CHADWANG,25.0422966,121.5407533
Taipei,Savour Cafe,25.0335076,121.5482842
Taipei,COFFEE IN SPACE,25.0434229,121.542951
Taipei,勺光-188,23.8672523,120.9101269
Taipei,getmore lab 精品咖啡 Specialty Coffee,25.0341316,121.5348215
Taipei,RUFOUS COFFEE,25.023482,121.543519
Taipei,Coffee Sweet 自家烘焙咖啡館,25.0483789,121.5221988
Taipei,Gabee coffee,22.5299941,113.3947035
Taipei,黑露咖啡館 OLO Coffee Roasters,25.050914,121.520039
Taipei,大爆咖啡 BOOM coffee roasters,25.022813,121.54767
Taipei,Fujin Tree 355 富錦樹355,25.060647,121.5578783
Taipei,The Lobby of Simple Kaffa | Hotel V,25.0428362,121.5516387
Taipei,Woolloomooloo,25.033255,121.558137
Taipei,巢 nido,25.0412474,121.5691575
Taipei,Cafe Lakulaku,25.0443896,121.5469734
Taipei,picnic野餐咖啡,25.0203599,121.533063
Taipei,光景 Scene Homeware,25.056653,121.545609
Taipei,All Day Roasting Company,25.056827,121.560257
Taipei,Luguo Café,25.054633,121.509949
Taipei,Zhanlu Coffee,25.016063,121.531908
Taipei,PEG coffee,25.0232495,121.5546485
Taipei,Goodman Roaster(阿里山咖啡),25.1239923,121.5318117
Taipei,Wilbeck Cafe,25.0262377,121.5227028
Taipei,COFFEE : STAND UP,25.042822,121.555571
Taipei,The Factory Mojocoffee,24.1549201,120.6570939
Taipei,Sun Coffee,25.0164909,121.3016679
Taipei,Milkglider latteartist unity,25.059436,121.5487
Taipei,Olivia Coffee Roaster,25.0385194,121.5559712
Taipei,Ruins Coffee Roasters,24.9907279,121.5710437
Taipei,Solidbean Coffee Roasters,24.156451,120.657761
Taipei,錘子咖啡烘焙坊 Twi A Coffee Roasters,25.239451,121.457113
Taipei,Peloso Coffee Roaster 沛洛瑟珈琲店,25.033497,121.5076899
Taipei,Glacier Coffee Roasters 冰河咖啡,24.168835,120.655034
Taipei,The CURVE Coffee Roasting Co. - SCAA Campus.,24.165516,120.634878
Taipei,GEORGE HOUSE,25.0289358,121.5299714
Taipei,Single Origin espresso & roast,25.0434197,121.5527413
Taipei,FURO CAFE,25.0337929,121.5480147
Taipei,Paper St. Coffee Company,25.043601,121.530227
Taipei,Taster's Coffee,25.0678589,121.5768008
Taipei,The Normal,25.0379529,121.5561194
Taipei,COFFEE LOVER's PLANET,25.0404249,121.5483553
Taipei,COFFEE LOVER's PLANET,24.8100339,120.9750464
Taipei,Terra Coffee 德樂咖啡,25.0638632,121.5180832
Taipei,nuhi (nu studio),25.046484,121.574876
Taipei,丸花豆倉 Monga Coffee Roasters,25.0389769,121.5026932
Taipei,Elephant Machine Coffee,25.030775,121.529739
Taipei,Always bean Good,25.0250894,121.5597663
Taipei,Tzubi coffee,25.039303,121.5515821
Taipei,Balance Cafe Shop x Coffee Artisanal Roastery,25.0457088,121.5425357
Taipei,MKCR / Mountain Kids Chill & Relax 山小孩咖啡,25.0220052,121.5521883
Taipei,MKCR / Mountain Kids Coffee Roaster 山小孩（南港店）,25.0513017,121.5975991
Taipei,D23 Coffee Roasters,25.0557638,121.5372338
Taipei,D23 Coffee Dazhi,25.0779742,121.5503381
Taipei,Instil Coffee Dimension,25.0310211,121.5429835
Taipei,RockyDoggy Coffee Store/咬滾狗狗咖啡館,25.0371241,121.5581438
Taipei,Notch咖啡 高等法院店,25.0385318,121.5113727
Taipei,Notch咖啡 永安店(新店面僅有一層樓),25.0025525,121.5121267
Taipei,VWI by Chadwang,25.0775429,121.2352357
Taipei,VWI by CHADWANG 台中店,24.1373714,120.6585149
Taipei,森焙 Sun Coffee Roasters,25.0321003,121.5587548
Taipei,Barista Ray Coffee (台北店),25.0405469,121.5541299
Taipei,What’s Life Coffee Roasters,25.0710101,121.5196661
Taipei,金福咖啡 JinfuCoffee,24.9997783,121.5389805
Taipei,鬧蟬咖啡Now Chance Coffee (Fuxing),25.0535952,121.5419894
Taipei,SanFormosan Coffee Dadaocheng Main Shop,25.0540223,121.5118569
Taipei,Mau Coffee,25.0574392,121.5335615
Taipei,Goodman Roaster 華山店,25.0467348,121.5318246
Taipei,Fong Da Coffee,25.042566,121.506354
Taipei,Nanmay Coffee,25.042574,121.506311
Taipei,Oasis Coffee Roasters - Anhe,25.0340477,121.5517744
Taipei,Oasis Coffee Roasters - Nanjing,25.0529187,121.5474658
Taipei,Oasis Coffee Roasting Lab,25.119019,121.5319392
Taipei,nabiis cycles & coffee,25.0549489,121.5133171
Taipei,SAND COFFEE,25.0285442,121.560018
Taipei,ALL DAY ROASTING COMPANY 師大店,25.02067,121.526735
Taipei,% ARABICA,25.0563113,121.520804
Taipei,CURISTA COFFEE Taipei City Hall Shop,25.0415163,121.5641657
Taipei,CURISTA COFFEE奎士咖啡 SOGO忠孝店,25.0420339,121.5447843
Taipei,CURISTA COFFEE奎士咖啡 誠品南西店,25.0520942,121.5207243
Taipei,CURISTA COFFEE奎士咖啡 遠百信義A13店,25.0367019,121.5680927
Taipei,CURISTA COFFEE奎士咖啡 台北101店,25.0338211,121.5644443
Taipei,Café Chamber,25.0245551,121.5254577
Taipei,COSTUMICE CAFÉ,25.0436842,121.5525228
Taipei,ForgoodCafe 好多咖啡,25.0304039,121.53002
Taipei,Oklao Coffee Farm,25.0247895,121.5493908
Taipei,Roaster Family Coffee 烘焙者咖啡,25.0305404,121.5304497
Taipei,滴咖啡 DROP COFFEE HOUSE,25.019063,121.5336153
Warsaw,Kawiarnia Relaks,52.202667,21.021735
Warsaw,Kawiarnia Filtry,52.2204761,20.9885492999999
Warsaw,Ministerstwo Kawy,52.218816,21.018269
Warsaw,Kawiarnia Filtry,52.2204761,20.9885492999999
Warsaw,Żona Krawca - Kawiarnia,52.2474912,21.0646064
Warsaw,Żona Krawca - Kawiarnia,52.2474912,21.0646064
Warsaw,Punkt 7,53.9560855,22.3242188
Warsaw,Fat White Coffee Bar,52.2501787,20.9991528
Warsaw,Kawki na Stawki,52.2542001,20.9953602000001
Warsaw,Kofi Brand,52.2510724,21.0625361
Warsaw,Moko,52.1948268,21.0230448
Warsaw,Forum Coffee,52.21969,21.0166869
Warsaw,Cafe Plakatówka,52.160865,21.07065
Warsaw,Fabryczna,52.224473,21.0383486000001
Warsaw,STOR,52.236861,21.024715
Warsaw,U Krawca Cafe,52.2443652,21.0779551000001
Warsaw,Secret Life Cafe,52.269654,20.9795340000001
Warsaw,Relax Cafe Bar,52.233269,21.0107442999999
Warsaw,Same Fusy. Herbaciarnia i Kawiarnia,52.2502824,21.0109643000001
Warsaw,F30 kawiarnia,52.235095,21.053939
Warsaw,Sady Cafe,52.2663784,20.976051
Warsaw,Coffee Republic,52.1949472,20.9242581999999
Warsaw,Kawiarnia Cophi,52.2256562,21.0111903
Warsaw,Kawiarnia Czytelnia,52.2827398,20.9532280999999
Warsaw,NOISE (HALAS) Vinyl + Coffee,52.2526491,21.0341561
Warsaw,"eMeSeN (Museum of Modern Art, Panska 3)",52.2326634,21.0020824000001
Warsaw,"EMESEN (Museum of Modern Art, Vistula)",52.2431482,21.0270864
Warsaw,Story Coffee Roasters,52.186386,20.905518
Warsaw,Coffeedesk,52.2245418,21.0136408
Warsaw,Kawałek,52.2325166,20.988063
Warsaw,WYSPA kawiarnia bistro PRAGA,52.2619574,21.024124
Warsaw,No i Co,52.2476022,21.0628193
Warsaw,Cortado Sisters cafe,52.1587151,21.0667149999999
Warsaw,frykasy rarytasy,52.216681,21.230847
Warsaw,Balance Speciality Coffee,52.24494,20.9628700000001
Warsaw,Ceramiczna cafe bar,52.3219785,20.9623747000001
Warsaw,Unique Choice,52.232234,21.116256
Warsaw,Nancy Lee,52.2334328,21.0149764
Warsaw,Kawiarnia Posiaduffka,52.2614552,21.1650483
Warsaw,Kawiarnia Fawory,52.2625838,20.9916147
Warsaw,Instax Cafe,52.220379,21.0126031
Warsaw,4 Pokoje,52.2572209,21.0374666
Warsaw,Sweet & Blossom Cafe,52.223532,21.0124557
Warsaw,Coffeelab,52.3254065,21.0263257
Warsaw,Kawka na ławkę,52.267441707768,20.988371372223
Kyoto,% Arabica Kyoto Higashiyama,34.9986354,135.778294
Kyoto,% Arabica Kyoto Arashiyama,35.0135406,135.6763951
Kyoto,Cafe Phalam カフェパラン,35.0115943,135.742901
Kyoto,Ｓｅｎｔｉｄｏ,35.0101781,135.7609022
Kyoto,Unir【ウニール本店】,34.937156,135.691467
Kyoto,HUMAN MADE 1928 Cafe by Blue Bottle Coffee,35.0084787,135.7665389
Kyoto,Blue Bottle Coffee - Kyoto Rokkaku Cafe,35.0074363,135.7611875
Kyoto,WEEKENDERS COFFEE TOMINOKOJI,35.0067836,135.7644831
Kyoto,Kurasu Kyoto Stand,34.9863776,135.7538511
Kyoto,Vermillion Cafe,34.9684193,135.7741523
Kyoto,Blue Bottle Coffee - Kyoto Kiyamachi Cafe,35.0058282,135.7704014
Kyoto,LIGHT UP COFFEE KYOTO,35.0295986,135.7700928
Kyoto,Clamp Coffee Sarasa,35.0114194,135.7456757
Kyoto,Sarasa Nishijin,35.0376219,135.7468855
Kyoto,efish - エフィッシュ,34.995249,135.7673768
Kyoto,Vermillion (Fushimi Inari),34.967563,135.770804
Kyoto,OGAWA COFFEE,34.9863756,135.7600045
Kyoto,INODA COFFEE,34.9869525,135.7605417
Kyoto,Drip & Drop Coffee Supply,35.0059591,135.7685461
Kyoto,% ARABICA Kyoto Fujii Daimaru,35.003348,135.766698
Kyoto,dot.S,35.0138195,135.7848474
Kyoto,HIBICOFFEE,34.9895593,135.7645167
Kyoto,Akatsuki Coffee,35.041861,135.7828954
Kyoto,roastery DAUGHTER / gallery SON,34.9885967,135.7528781
Kyoto,Walden Woods Kyoto,34.9933456,135.7631592
Kyoto,here,35.0091808,135.7552339
Kyoto,% ARABICA Kyoto Roastery & Bakery,35.041188,135.685508
Kyoto,Blue Bottle Coffee Kyoto Cafe,35.0114169,135.7894748
Kyoto,WEEKENDERS COFFEE ROASTERY,34.9989516,135.7660728
Kyoto,common.,35.0178387,135.7541457
Kyoto,STYLE COFFEE,35.0182921,135.7689859
Kyoto,Goodman Roaster Kyoto,35.0023772,135.755671
Kyoto,SOT COFFEE ROASTER Kyoto / ソットコーヒー京都七条,34.9916962,135.7695191
Kyoto,DRIP & DROP COFFEE SUPPLY GINKAKUJI,35.0274936,135.7916752
Kyoto,DRIP & DROP COFFEE ROASTERY,35.028126,135.7468727
Kyoto,DRIP & DROP COFFEE SUPPLY 寺町店,35.0126492,135.7673831
Kyoto,here Kyoto Kiyomizu,34.9960733,135.7809287
Kyoto,Kurasu Ebisugawa,35.0148564,135.762174
Kyoto,Kurasu Nishijin Roastery,35.0368239,135.7487364
Kyoto,Stumptown Coffee Roasters,35.0097689,135.7601108
Kyoto,Hive Coffee,35.0300181,135.7580181
Kyoto,SUMI WINE COFFEE,34.99897,135.7684244
Kyoto,heath,35.0082649,135.751055
Kyoto,SCHOOL BUS COFFEE STOP KYOTO,35.0156273,135.7690716
Kyoto,SCHOOL BUS COFFEE BAKERS,35.0154537,135.7593513
Kyoto,Kitaoji Roastery Lab,35.0438668,135.7603637
Kyoto,Kamogawa Cafe,35.0201636,135.7697791
Kyoto,Cafe Bibliotec Hello,35.013694,135.7641579
Medellin,PERGAMINO Café - Vía Primavera,6.208284,-75.567079
Medellin,Cafe Velvet Medellin,6.2080267,-75.5669974
Medellin,Creador - Café,6.207702,-75.567661
Medellin,Toucan Cafe & Tours,6.210185,-75.569071
Medellin,Rituales compañía de café,6.245584,-75.595401
Medellin,My Daughter (Hija Mia) Coffee Roasters,6.212538,-75.570863
Medellin,Al Alma Coffee Roasters,6.2127963,-75.5709838
Medellin,Urbania Café,6.209771,-75.572854
Medellin,Cafe Macanas Medellín,6.2068477,-75.564913
Medellin,Pergamino Coffee (Airport),6.172137,-75.4275651
Medellin,El Laboratorio de Café (Aeropuerto Olaya Herrera),6.2183385,-75.5869108
Medellin,El Laboratorio de Cafe (Museo de Antioquia),6.2522317,-75.568818
Medellin,El Laboratorio de Café (Indiana Mall Center),6.1541125,-75.532947
Medellin,El Laboratorio de Café (Centro Comercial El Tesoro),6.1965831,-75.5596092
Medellin,El Laboratorio de Café (Tostadora),6.1983877,-75.5876384
Medellin,El Laboratorio de Café (Plazoleta Ruta N),6.2649525,-75.5666495
Medellin,El Laboratorio de Café (Centro Comercial Puerta del Norte),6.340271,-75.542889
Medellin,La Cafeteca in Bello (La Cafeteca Tienda de café),6.3153287,-75.556369
Medellin,Café Revolución,6.245835,-75.592245
Medellin,Cariñito Cafe,6.2245345,-75.5744091
Medellin,Café con Mucho Amor,6.2489557,-75.5705315
Medellin,Al Alma Coffee Roasters La Strada,6.2019858,-75.5720728
Medellin,Cafe Al Alma,6.2071008,-75.5661284
Medellin,Algarabía - Café y comercio justo,6.2457452,-75.5928595
Medellin,La Taza Tienda De Café,6.2460313,-75.5968216
Medellin,Pergamino Café Oviedo,6.1995936,-75.5751909
Medellin,Cafe Zeppelin,6.2086673,-75.5668013
Medellin,Cafe Zeppelin,6.2464103,-75.5976457
Medellin,Café Cliché,6.248372,-75.5955629
Medellin,El Café de Otraparte,6.1794687,-75.5839562
Medellin,Distrito Radio,6.2439341,-75.5968652
Jerusalem,Roasters,31.7847601,35.2127879
Jerusalem,Cafe Kadosh,31.7800639,35.2216128
Jerusalem,Tmol Shilshom,31.7809565,35.2199310999999
Jerusalem,Al Mufti,31.7794035,35.2315201
Jerusalem,טחנת הקפה The Coffee Mill,31.764782,35.22101
Jerusalem,cafe 7,31.7788805,35.2230853
Jerusalem,Etz Cafe,31.7789193,35.2233536
Jerusalem,Austrian Hospice,31.7803259,35.2321158
Jerusalem,Souq al-Qattanin Coffee,31.7771906,35.2344806
Panama_City,Mentiritas Blancas,8.9901035,-79.5249948
Panama_City,Unido (Coco Del Mar),8.9925865,-79.4977422
Panama_City,"Unido (Casco Viejo, American Trade Hotel)",8.9525933,-79.5371804
Panama_City,"Unido (Costa del Este, P.H. MMG Tower)",9.0083086,-79.477002
Panama_City,"Unido (Marbella, Plaza La Riviera)",8.9799553,-79.518067
Panama_City,"Unido (Multiplaza, Luxury Ave)",8.983888,-79.509899
Panama_City,Leto Coffee Brew Bar,8.9913109,-79.5030286
Panama_City,NINA Concept Store,8.983509,-79.520566
Panama_City,Bajareque Coffee House,8.9514586,-79.5323611
Dubai,% Arabica - City Walk II,25.2042492,55.2633021
Dubai,Specialty Batch Coffee HQ,25.222966,55.258116
Dubai,Jebena Specialty Coffee,24.98096,55.2008989999999
Dubai,% Arabica - Dubai Mall,25.1967661,55.278748
Dubai,Seven Fortunes Coffee Roasters,25.1148438,55.2382165
Dubai,The Brass Coffee & Community,25.2088588,55.2625281000001
Dubai,Raw Coffee Company,25.150859,55.228164
Dubai,THE SUM OF US,25.229801,55.285854
Dubai,Roseleaf Cafe,25.130147,55.212729
Dubai,Boon Coffee,25.0792767,55.1499429
Dubai,Kaffa Beans Specialty Coffee Roastery,25.1141943,55.3718454
Dubai,Cafe Rider Custom,25.117507,55.212586
Dubai,Nightjar Coffee,25.14276,55.2246700000001
Dubai,Gold Box Roastery,25.118319,55.2105790000001
Dubai,Stomping Grounds - Specialty Coffee Hub,25.223134,55.2582070000001
Dubai,Coffee Planet Distribution Centre,25.1172539,55.2246036
Dubai,Brew Cafe,25.1470134,55.1969865
Dubai,The Espresso Lab,25.221146,55.25856
Dubai,ColsBrew Cold Brew,25.18009,55.3525500000001
Dubai,Nostalgia JBR,25.0768965,55.132805
Dubai,Drip House Café,24.9991079,55.1699066
Dubai,Mokha 1450 Coffee Boutique,25.2141328,55.2589032999999
Dubai,Walter's Coffee Roastery,25.1964657,55.2776459
Dubai,Common Grounds,25.1191192,55.2028445
Dubai,Tom&Serg,25.1455025,55.2234532
Dubai,Coffee Museum,25.2636586,55.3001432999999
Dubai,Zawaya Cafe,25.3093295,55.4571088
Dubai,Ratios Coffee,25.3598641,55.3841692
Dubai,Specialty Batch Coffee HQ,25.222966,55.258116
Dubai,Cremolata كريمولاتا,25.3068216,55.4660057
Dubai,Leopolds of London,25.0778525,55.1327433
Dubai,The Coffee Lab - Specialty Coffee Roasters,25.258648,55.2774304
Dubai,CHIQUE o LATTE AMSTERDAM,25.079102,55.123652
Dubai,HOOF CAFE MUWEILLAH BRANCH,25.3107913,55.4562033
Dubai,GET YOUR FIX,25.2496459,55.3592116
Dubai,Blend Coffee,25.3220513,55.4684091
Toronto,Dark Horse Espresso Bar (Spadina),43.6506265,-79.3968412
Toronto,Dark Horse Espresso Bar (John Street),43.6483441,-79.3902037
Toronto,Dark Horse Espresso Bar (401 Richmond),43.6478841,-79.3948234
Toronto,Dark Horse Espresso Bar (Riverside),43.6584475,-79.3528988
Toronto,Dark Horse Espresso Bar (Geary Avenue Bakery),43.6704899,-79.4349806
Toronto,Dark Horse Espresso Bar (Canary),43.653082,-79.3569557
Toronto,Early Bird Espresso & Brew Bar,43.6473763,-79.4025296
Toronto,Sorry Coffee Co,43.669797,-79.3917437
Toronto,Quantum Coffee,43.6455569,-79.395416
Toronto,Pilot Coffee Roasters (Crafted),43.64723,-79.4197899
Toronto,The Sidekick,43.6645349,-79.3251074
Toronto,Mercury Espresso Bar,43.660584,-79.341341
Toronto,Pilot Coffee Roasters (Tasting Bar),43.673738,-79.330038
Toronto,Pilot Coffee Roasters (Union Station),43.645255,-79.3804224
Toronto,Boxcar Social (Summerhill),43.6817068,-79.3916378
Toronto,Boxcar Social (Riverside),43.6598348,-79.3469653
Toronto,Boxcar Social (The Slip / Harbourfront),43.638754,-79.382639
Toronto,Boxcar Social (Temperance),43.6505117,-79.3822063
Toronto,1210 Yonge St,43.6817544,-79.3917412
Toronto,Sam James Coffee Bar (TORONTO ST SHOP),43.650317,-79.3759066
Toronto,Sam James Coffee Bar (PATH SHOP),43.6481359,-79.3846465
Toronto,Sam James Coffee Bar (CHINATOWN SHOP),43.6515584,-79.3972263
Toronto,Sam James Coffee Bar (PARK SHOP),43.6453482,-79.412589
Toronto,Sam James Coffee Bar (HARBORD SHOP - original),43.6602506,-79.415417
Toronto,Neo Coffee Bar,43.6507058,-79.369143
Toronto,Propeller Coffee Co.,43.6593989,-79.4449065
Toronto,Wallace Espresso,43.6624621,-79.4443119
Toronto,Thor Espresso Bar,43.6420785,-79.4017215
Toronto,Station Cold Brew Coffee Co.,43.6655467,-79.4500078
Toronto,Rooster Coffee House (newest location),43.6696085,-79.380022
Toronto,Rooster Coffee House (2nd location),43.6517403,-79.3653804
Toronto,Rooster Coffee House (original location),43.6691754,-79.3527567
Toronto,Odin Cafe + Bar,43.6567318,-79.3567815
Toronto,"Northwood (cocktails, craft beer, coffee)",43.662508,-79.4220581
Toronto,"Northern Belle (coffee, craft beer, cocktails)",43.650834,-79.4126794
Toronto,M Square Coffee Co.,43.6512236,-79.3842189
Toronto,Lit Espresso Bar,43.6458335,-79.4487414
Toronto,Lit Espresso Bar,43.7045027,-79.3743981
Toronto,Krave Coffee,43.68068,-79.4292317
Toronto,Fahrenheit Coffee (original),43.652532,-79.373042
Toronto,Fahrenheit Coffee (FAHRENHEIT 2),43.6469845,-79.4006421
Toronto,"Fahrenheit Coffee (popup, 1903 | A Harley-Davidson Café)",43.6462919,-79.4197341
Toronto,Dineen Coffee Co.,43.6511527,-79.3789252
Toronto,Crema Coffee Company,43.6654085,-79.4722441
Toronto,Creeds Coffee Bar,43.6742872,-79.4109495
Toronto,Capital Espresso,43.6407996,-79.4345882
Toronto,Bud's Coffee Bar,43.6694664,-79.3033236
Toronto,Arvo Coffee,43.6499059,-79.3611954
Toronto,Black Bear Espresso,43.6612511,-79.3815231
Toronto,Black Rock Coffee,43.6637648,-79.4164666
Toronto,Bob Coffee Bar,43.6754426,-79.4231009
Toronto,Fix Coffee + Bikes,43.6450154,-79.4283625
Toronto,Hale Coffee Company,43.665502,-79.449994
Toronto,HotBlack Coffee,43.650248,-79.388655
Toronto,Istanbul Cafe & Espresso Bar,43.7079436,-79.3930787
Toronto,Louie Craft Coffee,43.6391066,-79.4255263
Toronto,OFFSITE Concept Space (Coffee Bar),43.651233,-79.410633
Toronto,Run and Gun Coffee,43.6496361,-79.4332365
Toronto,Versus Coffee,43.651254,-79.375334
Toronto,Coffee Tree Roastery,43.649681,-79.483597
Toronto,JetFuel Coffee shop,43.665318,-79.368156
Toronto,Kaffebar,43.665512,-79.463781
Toronto,The Moonbean Cafe,43.6542657,-79.4001776
Toronto,FIKA Cafe,43.6535453,-79.4004316
Toronto,Tandem Coffee,43.6536212,-79.3618897
Toronto,The Black Canary Espresso Bar (Sherbourne),43.651919,-79.36828
Toronto,The Black Canary Espresso Bar (Yonge),43.65702,-79.380445
Toronto,Atlas Espresso Bar,43.6414308,-79.399462
Toronto,Empire Espresso,43.6552947,-79.4166693
Toronto,Bull Dog Coffee,43.6601142,-79.3778273
Toronto,School House Espresso,-25.2880801,152.8333345
Toronto,Hopper coffee,43.6576921,-79.4026617
Toronto,Sweet Jesus (Uptown),43.7077619,-79.3946484
Toronto,Sweet Jesus (Downtown),43.6472229,-79.3902168
Toronto,The Library Specialty Coffee,43.6453103,-79.4125467
Toronto,NEO COFFEE BAR,43.6601367,-79.3858692
Toronto,De Mello Coffee x Chocolat de Kat,43.6808449,-79.4309922
Toronto,Merchants Of Green Coffee,43.6600912,-79.3540915
Toronto,Hatch Coffee Roasters,43.845757,-79.3615215
Toronto,Sparkplug Coffee,43.6587225,-79.3493305
Toronto,Mofer Coffee Danforth,43.6832709,-79.323406
Toronto,Mofer coffee St Clair,43.679023,-79.43894
Toronto,Hale Coffee Company,43.5926632,-79.6449004
Toronto,Hale Coffee Midtown - Coffee Roasters. Take and buy best organic and fresh coffee.,43.7038634,-79.3973226
Toronto,JAVA ROASTERS,43.6631197,-79.3412196
Toronto,Reunion Coffee Roasters,43.6409562,-79.4021719
Toronto,Found Coffee | Toronto,43.6576921,-79.4026617
Toronto,Social Coffee & Tea Company,43.853672,-79.392723
Toronto,Carbonic Coffee,43.655848,-79.393523
Toronto,Stereo Coffee Roasters,43.6691874,-79.4638873
Toronto,% Arabica (Union Station),43.645417,-79.3800797
Toronto,% Arabica (Yorkdale),43.7242374,-79.4539605
Toronto,de Mello Palheta Coffee Roasters,43.7118558,-79.3991638
Toronto,The Coffee Lab,43.667325,-79.400517
Toronto,Voodoo Child Espresso & Cocktail Bar,43.657071,-79.405514
Toronto,Manic Coffee,43.656804,-79.407096
Toronto,Lit Espresso Bar (Bloor West),43.651483,-79.4754283
Toronto,Reunion Island Coffee Bar,43.6505071,-79.4505516
Toronto,Pilot Coffee Roasters (Te Aro),43.6612139,-79.3384889
Toronto,The Library Specialty Coffee,43.6543249,-79.3908424
Zagreb,Cogito Coffee Shop 2,45.8106664,15.9636301
Zagreb,Cafe U Dvorištu,45.8070027,15.9729812
Zagreb,Teneo,45.8003364,15.9548625
Zagreb,Kavantura,45.7869647,15.9514722
Zagreb,Karibu Kaaawa,45.7994598,15.9503036999999
Zagreb,Dežman Bar,45.814087,15.9696629
Zagreb,Eli's caffe,45.812744,15.9658861
Zagreb,Cogito Coffee Shop,45.8118463,15.9725485
Zagreb,Quahwa,45.811306,15.975389
Zagreb,Express Bar,45.8118867,15.9791301
Da_Nang,The Garden House,16.0596985,108.2105469
Da_Nang,Why Coffee Roastery,16.051431,108.2406761
Da_Nang,Gold Star Coffee,16.0467943,108.2423727
Da_Nang,Cong Kopi Specialty Coffee Corner,16.06565,108.221141
Da_Nang,SIX ON SIX,16.0429109,108.2447921
Da_Nang,Brewman Coffee Concept,16.064482,108.2230015
Da_Nang,H Coffee,16.052424,108.2454656
Da_Nang,The Espresso Station,16.0666313,108.2240063
Da_Nang,M'ja Speciality Coffee,16.0700433,108.2211921
Da_Nang,AVANA Concept Store,16.0623575,108.2232358
Da_Nang,43 Factory Coffee,16.0479774,108.2462331
Da_Nang,Congkopi Specialty Coffee Corner,16.0691239,108.2249117
Da_Nang,The Hideout café,16.0534372,108.2404777
Da_Nang,PUREZA Cafe,16.0648986,108.2335278
Da_Nang,Dâu ngọt café 'n' souvenir,16.0692546,108.2370386
Da_Nang,Dust cafe,16.066166,108.2225522
Da_Nang,Drop Coffee,16.0497503,108.2452432
Da_Nang,Dng.coffee,16.0723676,108.2210327
Da_Nang,Mintown Coffee Roasting,16.05573,108.2220717
Da_Nang,BreadnSalt Café,16.0491704,108.2452122
Da_Nang,IBASHO coffee and hostel,16.0606724,108.2375453
Da_Nang,Soncha Roastery,16.0765155,108.2129435
Da_Nang,Bacama Coffee & More,16.0681073,108.2044061
Da_Nang,SẾU the tearoom - contemporary matcha bar and specialty coffee,16.0479301,108.2351274
Da_Nang,emoi.coffeestand,16.0514468,108.2415377
Da_Nang,Àla Cafe,16.0736256,108.2216705
Da_Nang,Mia Coffee,16.075237,108.2224033
Madrid,HanSo Café,40.423876,-3.70554900000002
Madrid,Coffee and Kicks,40.419245,-3.70659669999998
Madrid,Lots Coffee House,40.435933,-3.68141500000002
Madrid,Doce Dos,40.435905,-3.71002999999996
Madrid,San Diego Coffee Corner SLU,40.4833878,-3.36330320000002
Madrid,Monkee Koffee,40.4404132,-3.70802090000007
Madrid,Matadero Madrid,40.3919782,-3.69796150000002
Madrid,1000 Cups Madrid,40.4337725,-3.70492190000004
Madrid,Puchero Coffee Roasters,41.352587,-4.69013500000005
Madrid,Supracafe,40.3177037,-3.84611640000003
Madrid,La Bicicleta Café,40.4238149,-3.70223429999999
Madrid,Mokka School & Shop,40.4354329,-3.68345350000004
Madrid,Mamamery Corner Cafe,40.4267717,-3.69885690000001
Madrid,Bianchi Kiosko Caffé,40.4243932,-3.70164
Madrid,The Fix,40.425718,-3.7150023
Madrid,Syra Coffee - Santa Isabel,40.4107823,-3.6980992
Madrid,Syra Coffee - Cabeza,40.4002105,-3.6997058
Madrid,Syra Coffee - Ferraz,40.4299238,-3.7208001
Madrid,Misión Café,40.4242084,-3.7087872
Madrid,Bô Coffee,40.4405396,-3.6977732
Madrid,Masamune Speciality Coffee,40.4260824,-3.7013027
Madrid,UMAMI SPECIALTY COFFEE,40.4124553,-3.693843
Madrid,Toma Café,40.4264767,-3.70593729999996
Madrid,Café Federal,40.4270304,-3.70930120000003
Rochester,Art Museum of Rochester - AMoR,43.1451303,-77.5911967
Rochester,The Daily Grind Coffeeshop,43.156118,-77.612465
Rochester,Press Coffee Roaster,43.1587786,-77.5997562
Rochester,Glen Edith Coffee Bar (Elton St),43.1556039,-77.5796365
Rochester,Canaltown Coffee Roasters,43.1451857,-77.5561104
Rochester,Fuego Coffee Roasters,43.156551,-77.6033017
Rochester,Ugly Duck Coffee,43.157416,-77.5968709
Rochester,Joe Bean Roastery – Bar – Kitchen,43.1505115,-77.5666338
Rochester,Glen Edith Coffee Roasters,43.147129,-77.576293
Rochester,Java's Cafe,43.1573001,-77.6015469
Kyiv,Svit Kavy (World of Coffee),50.4605159,30.5237893
Kyiv,Holy Beans Coffee Company,50.4598878,30.5116862
Kyiv,Whitebeard Blackbird,50.4596168,30.5121723
Kyiv,ONE LOVE coffee,50.4418339,30.5214486
Kyiv,ONE LOVE espresso bar St. Nicholas Cathedral,50.4265777,30.5163469
Kyiv,First Point Espresso Bar,50.4676491,30.5117388
Kyiv,RIGHT coffee bar,50.4555295,30.5039658000001
Kyiv,Без Дверей Espresso Bar,50.456074,30.50404
Kyiv,CoffeeDOOR,50.4643076,30.5215621
Kyiv,CafeBoutique,50.4646584,30.5133033
Kyiv,ONE LOVE coffee (ЦУМ/Tsum mall),50.4450994,30.5205504
Kyiv,16.coffee,50.4403259,30.5253004
Kyiv,Такава,50.4362354,30.5164092
Kyiv,16.coffee,50.4403259,30.5253004
Kyiv,One Little Coffee Shop,50.4517976,30.5203444
Kyiv,The Blue Cup Coffee Shop,50.447206,30.5192761000001
Kyiv,Blur Coffee,50.4374818,30.5308628
Kyiv,Chashka,50.438764,30.5200649999999
Kyiv,TAKAVA Coffee-Buffet 2.0,50.4419076,30.5205868
Kyiv,SLY FOX espresso bar,50.4305325,30.5156724999999
Kyiv,Bimbo,50.4230751,30.5183924
Kyiv,Frank Coffee,50.4311532,30.5421102
Kyiv,Make My Cake - Kyiv,50.4460936,30.5263247
Kyiv,COFFEE IN ACTION/DOMINO,50.4705495,30.5182745
Kyiv,Kharms (ХАРМС),50.44798,30.5155589999999
Kyiv,Coffee Mastery,50.4539104,30.5212642
Kyiv,Come and Stay,50.4390085,30.5175841
Kyiv,Yellow Place,50.4379835,30.5341688
Kyiv,CafeBoutique,50.442909,30.498216
Kyiv,Espressoholic,50.4298178,30.484369
Kyiv,Kultura Споживання,50.4382974,30.5200609
Kyiv,Espressoholic,50.4667945,30.5159607000001
Kyiv,Kaffa,50.465888,30.5200798999999
Kyiv,Myhdalʹ,50.4487447,30.4977688
Kyiv,Крилата Кава,50.4387371,30.6203388
Kyiv,Monocle,50.5534577,30.2544973
Kyiv,Kona Coffee,50.5129878,30.4999679
Kyiv,Idealist (Kyiv Airpot),50.4119806,30.4432924
Kyiv,KU•KU coffee&eat,50.4535245,30.5220045
Kyiv,Cactus Espresso Bar,50.4192283,30.5507066
Kyiv,Coffee please,50.4024285,30.6217483
Kyiv,No Ekspreso Bar,50.4180003,30.6334984
Kyiv,Rule Coffee Roastery,50.3401591,30.4765618
Kyiv,Lion Bar,50.4712504,30.5193902
Kyiv,Kachorovska на Льва,50.4403386,30.5182781
Kyiv,Kachorovska Store & Cafe,50.4616565,30.515909
Kyiv,Feliz Coffee & Food,50.4509091,30.4765979
Kyiv,Black Cafe,50.4613016,30.6428647
Kyiv,Pelican Rouge Cafe,50.4512105,30.468478
Kyiv,Pelican Rouge Cafe (Андреевский спуск),50.4585448,30.5176046
Kyiv,Pelican Rouge Cafe,50.4143516,30.5199317
Kyiv,Pelican Rouge Cafe (Конева 10/1),50.3825024,30.4577576
Kyiv,Kyiv city roast,50.3911584,30.4802995
Kyiv,CITY-ZEN cafe&bar,50.44708,30.488616
Kyiv,CITY-ZEN cafe&bar,50.45582,30.5126351
Kyiv,CITY-ZEN cafe&bar,50.4895135,30.4914994999999
Kyiv,CITY-ZEN cafe&bar,50.454857,30.636064
Kyiv,Kohana Kava,50.424926,30.506753
Kyiv,Kohana Kava,50.454706,30.511166
Kyiv,Новий Смачний Проєкт,50.4612552,30.5079295
Kyiv,August,50.4384622,30.5107249
Kyiv,fresh.black,50.4608929,30.6445805999999
Kyiv,Chicago,50.4333691,30.5132785000001
Kyiv,Takava Coffee (River Mall),50.4056944,30.6116055
Kyiv,Dot Coffee,50.4421144,30.5225001
Kyiv,BIMBO2 COFFEE Х MORE,50.4471805,30.519131
Kyiv,hungry bird,50.4175674,30.6329781
Kyiv,Milk Bar,50.4389589,30.5196387
Kyiv,Honey,50.465955,30.5115040000001
Kyiv,Fandom coffee bar,50.4474153,30.5142538
Phitsanulok,ร้าน The Pista Cafe'&bistro,16.813815,100.261756
Phitsanulok,Made For Mouth Cafe',16.8120308,100.2551331
Phitsanulok,Brew Brother,16.8033615,100.252112
Denver,Huckleberry Roasters,39.775492,-105.006749
Denver,Boxcar Coffee Roasters,39.768559,-104.9795818
Denver,Crema Coffee House,39.7611445,-104.9817229
Denver,Purple Door Coffee,39.7573761,-104.9743716
Denver,Black Eye Coffee (LOHI),39.7646929,-105.0039653
Denver,Black Eye (CapHill),39.729196,-104.9847176
Denver,Little Owl Coffee,39.7505187,-104.999708
Denver,Thump Coffee (Capitol Hill),39.7370362,-104.9728066
Denver,Aviano Coffee Cherry Creek,39.720378,-104.9543261
Denver,Metropolis Coffee (LOHI),39.7589785,-105.0087146
Denver,Metropolis Coffee (Golden Triangle),39.73371,-104.991939
Denver,Metropolis Coffee (Baker),39.7164424,-104.9877488
Denver,Corvus Coffee Roasters (Flagship Roastery & Espresso Bar),39.684904,-104.987262
Denver,Corvus Coffee Roasters (Cold Brew Bar & Espresso Counter),39.6249888,-104.9071442
Denver,Sweet Bloom Coffee Roasters,39.7423341,-105.0748274
Denver,MiddleState Coffee,39.722698,-104.986926
Denver,Alpine Modern Cafe,40.0071189,-105.2817206
Denver,Amethyst Coffee,39.734134,-104.987841
Denver,Black Black Coffee,39.7725928,-104.983351
Denver,Copper Door Coffee Roasters,39.731104,-104.9190324
Denver,Downpours Coffee (1200 Clayton St.),39.7353429,-104.9547125
Denver,Downpours Coffee (3937 Tennyson Street),39.7718455,-105.0441401
Denver,Lula Rose General Store,39.7398949,-104.9463595
Denver,Novo Coffee (Gilpin),39.7254389,-104.9669622
Denver,Novo Coffee (Glenarm),39.7439425,-104.9897263
Denver,Novo Coffee (Roastery),39.7624187,-104.979821
Denver,Novo Coffee (Highlands),39.7623296,-105.0349362
Denver,Overt,39.703654,-104.980315
Denver,Ozo Coffee (Pearl),40.0175636,-105.2821688
Denver,Ozo Coffee (Arapahoe),40.0142095,-105.2284876
Denver,Ozo Coffee (Roastery Cafe),40.0204335,-105.2182511
Denver,Ozo Coffee (Longmont),40.1470962,-105.1290972
Denver,Steam Espresso Bar,39.683851,-104.980791
Denver,Stowaway Coffee + Kitchen,39.758579,-104.986555
Denver,Two Rivers Coffee,39.837828,-105.083435
Denver,Logan's Espresso Cafe,40.0477494,-105.2807662
Denver,Gather,39.7335134,-104.9925877
Denver,Pablo's Coffee (6TH AND WASHINGTON),39.7254806,-104.9789739
Denver,Pablo's Coffee (13TH AND PENNSYLVANIA),39.7371538,-104.9806656
Denver,Coffee at The Point,39.7542033,-104.9776302
Denver,2914 Coffee,39.7534884,-105.0241528
Denver,Fluid Coffee Bar,39.7463304,-104.9809461
Denver,Kaladi Coffee Roasters,39.6783385,-104.9671049
Denver,Kaladi Coffee Roasters,39.6653767,-104.9878878
Denver,Whittier Cafe,39.7530363,-104.9667552
Denver,The Molecule Effect,39.7354548,-104.9989453
Denver,Allegro Coffee Roasters,39.7724042,-105.0438317
Denver,Coda Coffee Edgewater,39.752844,-105.0540502
Denver,Stapleton Roasters,39.7511647,-104.8896684
Denver,Bellwether,39.7399025,-104.9274205
Denver,Method Roasters,39.7759263,-104.9883209
Denver,The Weathervane Cafe,39.7434498,-104.9665249
Denver,Dragonfly Coffee Roasters,40.0626328,-105.278842
Denver,Boxcar Coffee Roasters,40.0198412,-105.2714926
Denver,The Cup Espresso Cafe,40.0189786,-105.2753331
Denver,The Denver Bicycle Cafe,39.7431071,-104.970548
Denver,Luna Roasters Gourmet Coffee and Tea,39.8288375,-104.978823
Denver,Hooked on Colfax,39.7403565,-104.9496373
Denver,Blue Sparrow Coffee,39.7643375,-104.981111
Plovdiv,Monkey House,42.1488597,24.7487325
Plovdiv,Dukiana Coffee Roaster / Дюкянъ,42.148627,24.7498370000001
Plovdiv,The Family Coffee Roasters,42.1515214,24.7461741
Plovdiv,Croatóan Specialty Coffee,42.1414515,24.7336203
Plovdiv,Dwell Coffee House,42.1475599,24.7468695
Yerevan,Caffeine,40.18559,44.51334
Yerevan,Coffeeshop Company Yerevan,40.1789832,44.5107839
Yerevan,Coffeeshop Company Yerevan II,40.1824427,44.5156989
Yerevan,The Green Bean (Yerevan),40.1801992,44.5091504
Yerevan,The Green Bean (Cascade),40.1894945,44.5161509
New_Delhi,Blue Tokai Cafe (Hauz Khas),28.5529979,77.2077833999999
New_Delhi,Blue Tokai Coffee (Vasant Vihar),28.557816,77.164458
New_Delhi,Perch Wine & Coffee Bar,28.5999714,77.2262857000001
New_Delhi,Perch Wine & Coffee Bar,28.5589779,77.1642312
New_Delhi,"Blue Tokai Coffee (Saket, Saidulajab Roastery)",28.5172756,77.2000871
New_Delhi,Jugmug Thela,28.5173555,77.1997999
New_Delhi,Blue Tokai Coffee (Sikanderpur),28.480026,77.093131
New_Delhi,Curious Life Coffee Roasters,26.9041402,75.7970614999999
New_Delhi,Coffee Bond,28.549346,77.2357489999999
New_Delhi,Dewan's,28.5260191,77.1651326
Singapore,Chye Seng Huat (Papa Palheta),1.3115483,103.8604359
Singapore,Nylon Coffee Roasters,1.276849,103.839921
Singapore,Pacamara Boutique Coffee Roasters Singapore,1.351452,103.835365
Singapore,Jewel Coffee,1.2791978,103.8503527
Singapore,Alchemist,1.276175,103.846023
Singapore,Old Hen Coffee Bar,1.314367,103.854248
Singapore,A.R.C. Coffee,1.3013972,103.8607389
Singapore,Penny University,1.308838,103.912036
Singapore,Dapper Coffee,1.2802344,103.8467673
Singapore,Sarnies Coffee,1.2957491,103.8597116
Singapore,The Populus,1.2781952,103.84075
Singapore,The New Black Concept Outlet,1.2883246,103.848572
Singapore,Curious Palette,1.2996465,103.849823
Singapore,RONIN,1.287637,103.847303
Singapore,The Bravery Cafe,1.3102404,103.861243
Singapore,Common Man Coffee Roasters,1.2918252,103.8384094
Singapore,MavRx,1.2795009,103.8431215
Singapore,Tiong Hoe Specialty Coffee,1.2909389,103.8031088
Singapore,Jimmy Monkey,1.3021635,103.7899689
Singapore,Toby's Estate,1.290007,103.8373104
Singapore,Oriole Coffee + Bar,1.3008969,103.8378387
Singapore,Rokeby,1.3472129,103.867861
Singapore,CAD Cafe,1.300616,103.859097
Singapore,Department of Caffeine,1.2797355,103.8433232
Singapore,Prodigal Roasters,1.3822626,103.8412168
Singapore,Grounded by CMCR,1.2917236,103.8383852
Singapore,Dutch Colony Coffee Co.,1.3142592,103.9195062
Singapore,Liberty Coffee,1.3338972,103.8834656
Singapore,Highlander Coffee Pte. Ltd.,1.2873901,103.8472961
Singapore,Highlander Coffee Pte Ltd,1.463205,103.815057
Singapore,Yahava KoffeeWorks,1.3731572,103.8299112
Singapore,Symmetry,1.3038422,103.8592264
Singapore,Just Want Coffee,1.2773566,103.8400189
Singapore,The LoKal,1.2783991,103.8408724
Singapore,Geisha Speciality Coffee,1.3023079,103.8528753
Singapore,Artistry Cafe,1.3029145,103.8582089
Singapore,Drury Lane Cafe,1.2782839,103.843636
Singapore,Collective Brewers,1.318163,103.9074874
Singapore,Strangers' Reunion,1.2769175,103.8364349
Singapore,Strangers @ Work,1.2835559,103.851953
Singapore,Assembly,1.3187566,103.8202386
Singapore,Tolido's Espresso Nook,1.3045459,103.8608284
Singapore,Providore,1.2834371,103.8513566
Singapore,Maison Ikkoku,1.3023379,103.8596962
Singapore,Flock Cafe,1.2835395,103.8302801
Singapore,Necessary Provisions,1.3363914,103.7681553
Singapore,7kickstart,1.2977704,103.8508821
Singapore,63 Espresso,1.2813563,103.853055
Singapore,Percolate,1.3281459,103.9352259
Singapore,Compound Coffee Co.,1.335629,103.905346
Singapore,Craftsmen Coffee,1.3129974,103.9235723
Singapore,Craftsmen Specialty Coffee,1.3213291,103.9554661
Singapore,Kyu Coffee Bar,1.282756,103.849922
Singapore,Senate Coffee,1.2851783,103.847247
Singapore,The Coffee Belt,1.2873179,103.8053956
Singapore,The Coffee Academics,1.3060907,103.8329104
Singapore,The Tiny Roaster,1.321948,103.769709
Singapore,One Man Coffee,1.352437,103.834907
Singapore,New Black Coffee Lab,3.2030635,101.7168599
Singapore,Atlas Coffeehouse,1.3230359,103.8120957
Singapore,The Daily Roundup,1.278834,103.841457
Singapore,Sarnies,1.2816129,103.8480039
Singapore,Sarnies,1.2816129,103.8480039
Singapore,Kurasu Singapore,1.296181,103.853573
Singapore,Mellower Coffee Singapore,1.29879,103.853932
Singapore,Mellower Coffee Singapore,1.2778415,103.8484526
Singapore,Lunar Coffee Brewers,1.2783301,103.8492953
Singapore,Common Man Stan,1.2802309,103.847947
Singapore,Glasshouse,1.2955796,103.8523151
Singapore,The Coffee Academics,1.2937088,103.8539532
Singapore,Five Oars Coffee Roasters,1.2791177,103.8440101
Singapore,Homeground Coffee Roasters,1.306384,103.904706
Singapore,Forty Hands East Coast,1.3075157,103.907472
Singapore,Glyph Supply Co,1.3003854,103.8375627
Singapore,Apartment Coffee,1.3126116,103.8611965
Singapore,Baristart Coffee Singapore,1.2777382,103.844417
Singapore,Double Up 双味,1.3164208,103.7573107
Singapore,The Community Coffee,1.3072298,103.8338092
Singapore,Narrative Coffee Stand,1.2968471,103.8535281
Singapore,MAXI COFFEE BAR,1.2814778,103.8454166
Singapore,Grids Coffee,1.2835849,103.8458909
Singapore,Alchemist,1.3349764,103.8858868
Singapore,Equate Coffee,1.2748632,103.8426344
Singapore,Parallel Coffee Roasters (Club Street),1.2826845,103.8471748
Singapore,Parallel Coffee Roasters (Quayside Isle),1.2477352,103.8419983
Singapore,Homeground Coffee Roasters,1.2800761,103.8408192
Singapore,September Coffee,1.2821429,103.8450654
Singapore,PPP,1.3043277,103.834431
Singapore,DAWN,1.2869124,103.8478714
Singapore,Pinhole Coffee Bar,1.2962986,103.855301
Singapore,Zerah Coffee Roasters,1.305245,103.863084
Singapore,Bloom Coffee,1.3133336,103.9278689
Singapore,Puck Provisions,1.3156108,103.8587047
Singapore,Rookie's Coffee Shop,1.2860246,103.8034775
Singapore,abseil,1.2739068,103.8462175
Singapore,Alchemist The Mill,1.2852957,103.8097234
Singapore,Geylang Drip City,1.3116944,103.8759397
Singapore,Rough Guys Coffee,1.2831275,103.8456227
Singapore,Waga Waga Den,1.2956544,103.8564952
Singapore,% Arabica CapitaSpring,1.2848635,103.8502672
Singapore,% Arabica Chip Bee Gardens,1.3117648,103.7967824
Singapore,% Arabica Jewel Changi Airport,1.3603912,103.989642
Singapore,Butler Koffee,1.2870399,103.8454289
Singapore,Slow Boat,1.2779901,103.8420133
Singapore,Fluid,1.3280247,103.8670684
Singapore,Merchant Coffee Roasters,1.3018027,103.8112199
Singapore,Three Penguins Roastery (Coffee Roasters),1.2928101,103.8220047
Singapore,Superlative Coffee Roasters,1.2915196,103.8407372
Singapore,Generation Coffee Roasters (Bedok),1.3272482,103.9330387
Singapore,Five Oars Coffee Roasters,1.3123615,103.9255243
Singapore,Smitten Coffee Roasters,1.409914,103.8714422
Singapore,PPP Coffee,1.2914752,103.8495118
Singapore,PPP Coffee,1.2925344,103.8394421
Singapore,ASK Coffee Roastery Singapore,1.2960924,103.8548481
Singapore,Fahrenheit Coffee Singapore,1.2971279,103.8564687
Montpellier,Café BUN,43.6075371,3.87789629999997
Montpellier,Nook Cafe,43.6094914,3.87538100000006
Montpellier,Coffee Club Montpellier,43.6100643,3.8759
Montpellier,Thiart Coffee,43.573728,3.94661450000001
Tbilisi,სკოლა • Skola Coffee & Wine Bar,41.6995526,44.7974266
Tbilisi,4 Vkuso,41.7084423,44.7939871999999
Tbilisi,ERTI KAVA coffee room,41.6989828,44.7953637000001
Tbilisi,Milk (at Fabrika),41.7092538,44.8025967999999
Tbilisi,Coffee LAB,41.725633,44.755119
Tbilisi,Minimalist Coffee,41.7004686,44.7985214
Tbilisi,Pin Pon Cafe,41.6899441,44.8033783999999
Tbilisi,Pin Pon Cafe,41.708633,44.774231
Tbilisi,Pin Pon Cafe,41.6767554,44.850141
Tbilisi,Tabidze #1 restuarant & specialty Coffee,41.6926569,44.8008285
Tbilisi,MEMO Coffee,41.708432,44.7601460000001
Tbilisi,Kvarts coffee,41.7005049,44.7954761
Tbilisi,They Said Books,41.7053053,44.7898797
Tbilisi,Slink cafe,41.695497,44.7942874
Tbilisi,Respublika Espresso Bar,41.6975772,44.8035714
Tbilisi,Jupiter,41.6920427,44.7999421
Tbilisi,Daily Grind Coffee & More,41.6931364,44.802658
Tbilisi,La Marzocco Espresso Bar,41.7102579,44.7663334
Tbilisi,Groovy Roasters,41.7115189,44.801709
Tbilisi,Stories Tbilisi Coffee & Tea,41.691683,44.801087
Tbilisi,Red Man Cafe Tbilisi,41.7050015,44.7835409
Tbilisi,Stamba Hotel,41.7056644,44.7878749
Tbilisi,BNKR Specialty Coffee,41.6987409,44.8032654
Tbilisi,Chernyi Cooperative Coffee Roasters,41.7064539,44.7718424
Tbilisi,Chernyi Cooperative Coffee Roasters,41.7045411,44.8016194
San_Francisco,Sightglass Coffee (SOMA District),37.7769813,-122.4085708
San_Francisco,Fourbarrel Coffee,37.767019,-122.421961
San_Francisco,Blue Bottle Coffee,37.7824754,-122.4077978
San_Francisco,Blue Bottle Coffee,37.776196,-122.423316
San_Francisco,Blue Bottle Coffee,37.7762486,-122.4169071
San_Francisco,Blue Bottle Coffee,37.7824756,-122.3931157
San_Francisco,Blue Bottle Coffee,37.7913064,-122.4009679
San_Francisco,Ritual Coffee Roasters,37.7564358,-122.4214011
San_Francisco,Trouble Coffee Co,37.7602545,-122.5053724
San_Francisco,Matching Half Cafe,37.777197,-122.4414181
San_Francisco,Sextant Coffee Roasters,37.7725052,-122.4130081
San_Francisco,Vega Coffee,37.7746094,-122.4110331
San_Francisco,Stanza Coffee,37.7649988,-122.4226528
San_Francisco,Verve Coffee Roasters,37.7671095,-122.4291448
San_Francisco,Saint Frank Coffee,37.7984753,-122.4221879
San_Francisco,Ritual (San Francisco International Airport),37.6213129,-122.3789554
San_Francisco,Ikon Coffee,37.7577184,-122.3942877
San_Francisco,Sightglass Coffee,37.7592345,-122.4113171
San_Francisco,Andytown Coffee Roasters,37.7566719,-122.5022955
San_Francisco,Beacon Coffee & Pantry,37.8022337,-122.4132655
San_Francisco,Coffee Cultures,37.7762074,-122.4147314
San_Francisco,Coffee Cultures,37.7910403,-122.4013302
San_Francisco,Ritual Coffee Roasters,37.7763909,-122.4241939
San_Francisco,Ritual Coffee Roasters,37.7705531,-122.4438393
San_Francisco,Ritual Coffee Roasters,37.7397321,-122.3902247
San_Francisco,Hearth,37.76234,-122.434763
San_Francisco,Sightglass Coffee (SFMOMA),37.7859072,-122.4008003
San_Francisco,Repose Coffee,37.7714854,-122.4368776
San_Francisco,Flywheel Coffee Roasters,37.7696659,-122.4534796
San_Francisco,Wrecking Ball Coffee Roasters,37.7967505,-122.4366291
San_Francisco,Artís Coffee,37.7773228,-122.4250165
San_Francisco,pinhole coffee,37.7396485,-122.4190081
San_Francisco,Mazarine Coffee,37.7875604,-122.4040535
San_Francisco,Linea Caffe,37.7616766,-122.4199847
San_Francisco,Snowbird Coffee,37.7631622,-122.4661241
San_Francisco,The Mill,37.7764784,-122.437911
San_Francisco,Equator Coffees & Teas,37.7826723,-122.4101985
San_Francisco,Equator Coffees & Teas,37.7863424,-122.3982524
San_Francisco,Sightglass Coffee (SF Farmers Market),37.7954882,-122.3935996
San_Francisco,Sightglass Coffee (Divisadero),37.7723206,-122.4375092
San_Francisco,Four Barrel Coffee Portola,37.728963,-122.403698
San_Francisco,Coffee Mission,37.7520687,-122.419054
San_Francisco,CHAPEL HILL COFFEE CO,37.7942087,-122.4042571
San_Francisco,Coffee Bar,37.7631542,-122.4109963
San_Francisco,Coffee Bar Kearny,37.7921517,-122.4046556
San_Francisco,Coffee Bar Montgomery,37.7905542,-122.402417
San_Francisco,Coffee Manufactory Oakland,37.7992303,-122.2804983
San_Francisco,Andytown Coffee Roasters,37.7416225,-122.5052425
San_Francisco,"Andytown Roastery, Training Lab, & Coffee Supply",37.742195,-122.4985593
San_Francisco,Andytown Coffee Roasters,37.7898082,-122.3953565
San_Francisco,The Family Room SF,37.7869634,-122.416461
San_Francisco,Farm : Table,37.7876956,-122.4143293
San_Francisco,George and Lennie,37.7815648,-122.4150428
San_Francisco,Provender Coffee,37.762443,-122.396889
San_Francisco,Ritual Coffee Roasters,37.7640564,-122.4328481
San_Francisco,State Bird Provisions,37.7837089,-122.4329937
San_Francisco,Boot Coffee Co,37.9667716,-122.5273116
San_Francisco,Chromatic Coffee,37.3239976,-121.9944679
San_Francisco,Mr. Espresso,37.799079,-122.281303
San_Francisco,Taylor Lane Organic Coffee,37.7683532,-122.4271267
San_Francisco,The Crown: Royal Coffee Lab & Tasting Room,37.8144975,-122.2651488
San_Francisco,The French Laundry,38.4044403,-122.3649712
San_Francisco,Trouble Coffee,37.813776,-122.2959598
San_Francisco,Soul Grind Coffee Roasters,37.5951322,-122.5059961
San_Francisco,Home Coffee Roasters,37.7544545,-122.4770135
San_Francisco,Equator Coffee,37.859091,-122.4853465
San_Francisco,Equator Coffees,37.9059487,-122.5484386
San_Francisco,Equator Coffees,37.8816583,-122.5244209
San_Francisco,Equator Coffees,37.8053147,-122.431873
San_Francisco,Equator Coffee,37.7942093,-122.4042292
San_Francisco,Equator Coffees,37.8122164,-122.2611187
San_Francisco,Equator Coffee @ Adobe,37.7711939,-122.4017531
San_Francisco,La Lucha Coffee Bar,37.7651172,-122.3998873
San_Francisco,La Lucha Coffee Bar,37.7436815,-122.4291311
San_Francisco,Blue Bottle Coffee,37.4476389,-122.1596142
San_Francisco,Blue Bottle Coffee,37.4447264,-122.1713224
San_Francisco,SIGNAL Coffee Roasters,37.77462,-122.2765429
San_Francisco,SIGNAL Coffee Roasters,37.8913733,-122.282391
San_Francisco,SIGNAL Coffee Roasters,37.7643204,-122.2434211
San_Francisco,Grand Coffee,37.754472,-122.4185021
San_Francisco,Grand Coffee Too,37.7563025,-122.4193399
San_Francisco,Linea Coffee Roasting + Caffe,37.7638051,-122.3952279
Chiang_Mai,Maled Coffee Roasters : โรงคั่วเมล็ด,18.7896978,98.9624498000001
Chiang_Mai,Trailer Coffee (Suriwong Book Center),18.7810012,98.9975218
Chiang_Mai,Trailer Espresso Bar,18.78788,99.0011072
Chiang_Mai,Flat White Café x Poshtel,18.290364,99.49155
Chiang_Mai,Three Nakhanik Cafe,18.7775774,98.9809511000001
Chiang_Mai,Looper Co.,18.7931384,98.9966469999999
Chiang_Mai,Akha Ama Coffee La Fattoria,18.7884228,98.9832933
Chiang_Mai,FOHCOFFEE,18.5712283,98.9960252999999
Chiang_Mai,Around 18Grams (At Kad Luang),18.7897149,99.0022036
Chiang_Mai,Simply Happy,18.7931484,98.9845038999999
Chiang_Mai,Street Coffee Crew,18.8076795,98.9649589
Chiang_Mai,Roastwood Artisan Coffee,18.77042430424,98.949780464172
Chiang_Mai,Chiang Mai Coffee Bean,18.7892597,98.9879464000001
Chiang_Mai,ABCD : A Better Cup and Design,18.7963487,98.9768914
Chiang_Mai,Gateway Coffee Roasters,18.788342466095,98.996096849442
Chiang_Mai,Akha Ama Living Factory,18.944788470996,98.918704249004
Chiang_Mai,CoolMuang Coffee,18.7884413,98.9931028
Chiang_Mai,note espresso lamphun,18.5808234,99.0060002
Chiang_Mai,Graph Cafe at One Nimman Project,18.8002107,98.9686632
Chiang_Mai,"Baristro at OOTD, One Nimman Project",18.8000431,98.9683145
Chiang_Mai,Nine One Cafe (One Nimman Project),18.7998603,98.9686739
Chiang_Mai,Thunder Bird Hostel,18.791836,98.993142
Chiang_Mai,"Zmoy cafe , ศรีมอย ค่าเฟ่",18.7934706,98.9904025999999
Chiang_Mai,FIND COFFEE,18.7897291,98.9646051
Chiang_Mai,Brewing Room,18.7872461,99.0080316999999
Chiang_Mai,Monmek Nimman Soi 5 ร้านกาแฟ ม่อนเมฆ,18.79876,98.967592
Chiang_Mai,Caliente Coffee Roaster,18.7889449,98.9783158
Chiang_Mai,Mix Kaffee,18.79103,98.978476
Chiang_Mai,Bart coffee roasters,18.7921689,98.9910019
Chiang_Mai,MA-CHILL COFFEE,18.781141,98.994069
Chiang_Mai,nowhere coffee brewers,18.7920588,98.9914665
Chiang_Mai,Farm Story House,18.7886789,98.9909172
Chiang_Mai,Bannok Kafae,18.736568,98.8998025
Chiang_Mai,Qahwa Coffee Estate,18.723065,98.940055
Chiang_Mai,Moddang Fire (มดแดงไฟ),18.802138,99.00281
Chiang_Mai,Yellow Crafts Cafe,18.78929,98.96455
Chiang_Mai,hohm cafe,18.8187104,98.9691769999999
Chiang_Mai,Khum Kafé,18.7880257,98.9884119999999
Chiang_Mai,October Cafe,18.7951244,98.9635945
Chiang_Mai,Taste Cafe,18.7951468,98.9627406
Chiang_Mai,cerebrum and friend,18.7832168,98.9819328
Chiang_Mai,A Day In Chiang Mai Coffee Brew,18.7764909,98.9963935999999
Chiang_Mai,Little Story Café,18.784267,98.994024
Chiang_Mai,Trailhead Cafe,18.782153,98.98969
Chiang_Mai,The Larder Cafe & Bar,18.7990836,98.9661208
Chiang_Mai,Overstand Coffee & Breakfast Chiang Mai,18.785996,98.9926290000001
Chiang_Mai,Asama Cafe Chiang Mai,18.7650297,98.9532054
Chiang_Mai,Coffee Lab Cafe & Roastery,18.7899857,98.9560723
Chiang_Mai,Khagee,18.7862428,99.0052348
Chiang_Mai,Cottontree Coffee & Cafe,18.8043614,98.9677845
Chiang_Mai,Nine One Coffee - Premium Handcrafted Coffee,18.7970355,98.9669200999999
Chiang_Mai,GRAPH CAFE,18.7916648,98.9915444999999
Chiang_Mai,Thom's Coffee (Lanna Folklife Museum),18.7902571,98.9883560000001
Chiang_Mai,TOONGsCoffeeHQ,18.7251081,98.925191
Chiang_Mai,Thom Artisan Coffee,18.7897238,98.965404
Chiang_Mai,Omnia Cafe & Roastery,18.8134846,98.9737875999999
Chiang_Mai,Ponganes Espresso,18.7900522,98.9900233
Chiang_Mai,Pacamara Coffee,18.7882933,98.9867426000001
Chiang_Mai,Ristr8to - Specialty coffee,18.799136,98.967119
Chiang_Mai,Roast8ry LAB,18.7989443,98.9686431
Chiang_Mai,ชื่นใจ (Jed Yod Plaza),18.8081624,98.9641491
Chiang_Mai,Brewginning coffee,18.7903418,98.9949001
Chiang_Mai,BART COFFEE (Up Avenue),18.7913125,98.9502663000001
Chiang_Mai,Specialty Coffee Collection,18.7923685,98.9521794
Chiang_Mai,ANALOG Cafe & Gallery,18.7808294,98.989685
Chiang_Mai,Happy Espresso,18.8056148,98.9782166
Chiang_Mai,Still.Coffee&Life,18.7888405,99.0015803
Chiang_Mai,Arun drip coffee (Thunderbird Hostel),18.7918361,98.993015
Chiang_Mai,Once in a Blue Moon Cafe & Hostel,18.7945468,98.9929966
Chiang_Mai,YELLOO,18.8003414,98.9673283
Chiang_Mai,Light Brown Coffee,18.793718,98.9707283
Chiang_Mai,Hubba Coffee,18.7955182,98.9688929
Chiang_Mai,MAX Coffee CM,18.7460643,98.9546564
Chiang_Mai,Flo Coffee Brewers,18.7870006,99.0081914
Chiang_Mai,papacraft,18.2906595,99.4956603
Chiang_Mai,MAHAMITr,18.2906716,99.4949894
Chiang_Mai,Baristaneer,18.7938939,98.970701
Chiang_Mai,component lab,18.7990594,98.9671254
Chiang_Mai,Werb Cafe,18.796766,98.9702302
Chiang_Mai,ROASTNIYOM EXCLUSIVE,18.797462,98.970901
Chiang_Mai,ILYSB I Love You so bad cafe,18.7600179,98.9439802
Chiang_Mai,Looper Wave,18.8132055,98.9648282
Chiang_Mai,Savor,18.7810624,99.0009055
Chiang_Mai,upto.coffee,18.7901205,98.9913557
Chiang_Mai,Graincafe.cnx,18.7723193,98.9517642
Chiang_Mai,Trailer Coffee,18.7843078,98.958557
Chiang_Mai,M88NDAY,18.7774673,98.9507001
Chiang_Mai,Tomato cafe' . Cnx,18.7870474,99.0081534
Chiang_Mai,MaliPai Roastery&cafe,18.7775054,98.9521405
Chiang_Mai,es•pe•cial Coffee Bar,18.7874908,99.0059926
Chiang_Mai,Impresso,18.788744,98.9623867
Chiang_Mai,DWBH,18.7868945,99.0091268
Chiang_Mai,Morestto,18.7997776,98.9640128
Chiang_Mai,MARS.cnx,18.7916436,98.9785657
Chiang_Mai,Chapter 2WO,18.788404,99.0007532
Chiang_Mai,The Baristro x Ping River,18.815844,99.0003428
Chiang_Mai,The Baristro By GUU,18.8078729,98.9950893
Chiang_Mai,Groon,18.7951686,98.9710687
Chiang_Mai,Third Place Coffee - Chiang Mai,18.7951264,98.9727512
Chiang_Mai,Brew Fact,18.7951202,98.9719872
Chiang_Mai,Sensation Coffee Roasters,18.7806269,98.9526143
Chiang_Mai,Romano studio chiangmai,18.7951214,98.9632046
Chiang_Mai,Fohhide,18.7987423,98.968686
Chiang_Mai,BULOV CAFE (formerly Wii Café),18.8024442,98.978966
Chiang_Mai,Roast8ry Flagship,18.7948735,98.9686882
Chiang_Mai,Red Diamond truck,18.7713809,98.9764414
Chiang_Mai,Green Food Coffee,19.1118639,98.7924972
Chiang_Mai,Nermu Coffee,19.1149717,98.7103799
Chiang_Mai,Single Origin Store,18.8457424,98.9935709
Chiang_Mai,The Rectangle Coffee X Tower,18.6861688,98.8967452
Chiang_Mai,FIEOW Coffee Room Roaster Shop,18.754667,99.008528
Chiang_Mai,สุขุม คราฟต์ (Sukhum Craft) スクンクラフト,18.6772816,98.9168446
Chiang_Mai,ALL BLACK,18.7990608,98.9660933
Chiang_Mai,The Extraction Saraphi,18.7104348,99.0401755
Chiang_Mai,Cafe' de saraphi,18.7248105,99.0252173
Chiang_Mai,Bar-Barista,18.785294,99.047727
Chiang_Mai,Carrotcoffeecnx,18.7826206,98.9847989
Chiang_Mai,Thor-Phan Coffee Roaster,18.7886795,98.9802303
Chiang_Mai,The Extraction Mae Hia,18.7429942,98.9401804
Chiang_Mai,Kate & Kim Coffee Roaster,18.7737354,99.0415747
Chiang_Mai,ORB CAFE CHIANG MAI,18.7902114,99.0089637
Chiang_Mai,Art Farmer Cafe,18.7813141,98.9985112
Chiang_Mai,Sensory cafe’,18.7459043,98.9436791
Chiang_Mai,Yourproject___,18.7829977,98.9829845
Chiang_Mai,Youngfolk at Club Carving CNX,18.761445,98.9706421
Chiang_Mai,The Baristro at Somphet Market,18.7929192,98.9938924
Chiang_Mai,GlassHopper Cafe,18.799322,98.9861931
Chiang_Mai,Toffee Roasters,18.7985599,98.9674874
Chiang_Mai,Din Cafe,18.7244828,98.9228376
Chiang_Mai,เริ่ม - RERM,18.9113323,98.9134946
Chiang_Mai,First Officer Coffee Roasters,18.7857081,98.9703103
Chiang_Mai,IKA:ffeine,18.7885529,98.9799179
Chiang_Mai,Basecamp Trail Cafe (Thailand),18.7943359,98.9485068
Chiang_Mai,Salt & Light CNX,18.7383302,98.9788627
Chiang_Mai,Minimal coffee - santitham,18.7981627,98.9793602
Chiang_Mai,The Baristro at Train Station,18.7821506,99.0162955
Chiang_Mai,PHOX STUDIO,18.7985382,98.9663314
Chiang_Mai,glin.cafe,18.797586,98.9793316
Chiang_Mai,JOINT.S,18.8156401,98.9687494
Chiang_Mai,Right Hand Coffee (The Food Trust CNX),18.793532,98.9969106
Chiang_Mai,W8 x viangpha cafe,18.7902529,98.994155
Chiang_Mai,Buncha’s slow bar,18.783339,99.00293
Chiang_Mai,BOB COFFEE - บ็อบ,18.8015835,98.9813478
Chiang_Mai,Transit Number 8,18.7871157,98.9602837
Chiang_Mai,Eternity-Specialty Coffee at Central Chiangmai Airport,18.7694688,98.9754291
Chiang_Mai,BeansLiquor - บีนส์ ลิเคอร์,18.7989537,98.9711311
Chiang_Mai,Mitte Mitte - Cafe & Brunch,18.79225,98.9957904
Chiang_Mai,Fernpresso at Lake,18.7615699,98.9349717
Chiang_Mai,Fernpresso Cafe,18.7608857,98.9603394
Chiang_Mai,Hoklhong Cafe,19.3504266,98.9624465
Chiang_Mai,Sukhum Caffe' (สุขุม คาฟเฟ่ สันป่าตอง),18.6261604,98.8990009
Chiang_Mai,Tanmonkey Coffee Roaster,18.7518275,98.9677354
Chiang_Mai,Slow bar on the way @HOME,18.7759783,98.9949083
Chiang_Mai,The Baristro Asian Style,18.7899479,98.9516702
Chiang_Mai,GIMME Shelter (Sukhum Coffee),18.8006534,99.0000149
Chiang_Mai,PLU T O,18.8349647,99.0051713
Chiang_Mai,All Ma Friends,18.7937822,98.9493253
Chiang_Mai,BARDRY,18.7498478,98.8902952
Chiang_Mai,Coffeebeansbyco,18.787939,98.9623657
Chiang_Mai,Tumbler,18.7888744,98.9732511
Chiang_Mai,Sun to the moon cafe,18.7717287,98.9546081
Chiang_Mai,Blue Coffee At Mae Hia,18.7419495,98.9387849
Chiang_Mai,The Extraction พืชสวนโลก,18.72912,98.9115144
Chiang_Mai,School Coffee,18.778891,99.0162329
Chiang_Mai,Tribe coffee,19.329109,98.953345
Chiang_Mai,L.O.T,18.7992995,98.9670501
Chiang_Mai,Improvise coffee III,18.7506067,99.0252387
Chiang_Mai,The cofreze,18.7877938,98.9621655
Chiang_Mai,Building A,18.7870709,99.0071199
Chiang_Mai,The Extraction Ordinary,18.7649119,98.9754622
Chiang_Mai,𝟭𝟮𝗙𝗘𝗕 𝗛𝗼𝗺𝗲𝘆 𝗖𝗮𝗳𝗲,18.7315307,98.9175232
Chiang_Mai,ร้านกาแฟ McClanahan,18.7878452,99.0054236
Chiang_Mai,The Story 106 Co-Working Space &Cafe,18.7884036,98.9985076
Chiang_Mai,Koff & Things.th,18.780982,98.9889762
Chiang_Mai,Hang & Craft,18.7970664,98.9679374
Chiang_Mai,Onuma Green Rabb,18.7873841,98.9670621
Chiang_Mai,Beam&Col. coffee bar,18.7763886,98.9861036
Chiang_Mai,co.coffee x roaster star,18.7782304,98.9846723
Chiang_Mai,Single Origin Store Tha Pae,18.7875448,98.9930357
Chiang_Mai,THE GOODCERY,18.7915606,98.9978738
Chiang_Mai,UncleKani,18.8009223,98.9637209
Chiang_Mai,The Extraction,18.769468,98.9753215
Chiang_Mai,GRAPH quarter,18.793293,98.9722208
Chiang_Mai,Improvise Coffee CBP,18.7973483,99.0248576
Chiang_Mai,The Shepherd,18.7743874,99.0006213
Chiang_Mai,Becoming Brew and Bake,18.8122433,98.9733944
Chiang_Mai,TOMATO HOUSE.cnx,18.8361232,99.0078176
Chiang_Mai,Nap’s Coffee Roaster CNX,18.7895957,98.9850092
Chiang_Mai,Cloud Coffee,18.8029941,98.95927
Chiang_Mai,Vaanaa / Art Farmer Bistro,18.8032128,99.0194384
Chiang_Mai,rab-a-bit.cnx,18.9442909,98.9279754
Chiang_Mai,Fatboi Coffee,18.7902273,98.9942558
Chiang_Mai,Ministry of Roasters-Chiang Mai กระทรวงการคั่ว เขตเชียงใหม่,18.7897446,98.9961516
Chiang_Mai,8 days a week,18.8014425,98.9631164
Chiang_Mai,Apt04.CNX,18.7896816,98.9962474
Chiang_Mai,Eternity - Specialty Coffee & Cult Cafe Thapae,18.788132,98.9966537
Chiang_Mai,Skugga Estate,18.7803474,99.2421828
Chiang_Mai,la.moon cold cafe,18.7871164,99.0073192
Chiang_Mai,บ้านนอกของชิกะ Home & Cafe チカの田舎,18.5941936,98.8404815
Chiang_Mai,Improvise Coffee,18.7906221,98.9898996
Chiang_Mai,GRASP 1981 Espresso Bar,18.7905859,98.9932809
Chiang_Mai,RoastBarn Coffee |โรงคั่วกาแฟโรสบาร์น,19.3582979,98.4368396
Chiang_Mai,สดชื่นแจ่มใส คอฟฟี่88-coffee slow bar.,19.0832398,98.3235194
Chiang_Mai,MOO Coffee & Bar @One Nimman,18.7999632,98.9686095
Chiang_Mai,Minimal coffee - Nimcity daily,18.7712859,98.9765025
Chiang_Mai,Thingamajiggy Coffee Roaster,18.9443426,98.9277222
Chiang_Mai,Tanmonkey coffee Roaster,18.7967916,99.0242804
Chiang_Mai,Black Single Coffee Bar,18.7845117,99.0221766
Chiang_Mai,Create Things in Light Brown,18.7964651,98.9690679
Chiang_Mai,Koff’N Hops,18.7510976,98.9559379
Chiang_Mai,Path,18.7100625,98.9570625
Chiang_Mai,Takarkad Cafe,18.8211811,99.0165006
Chiang_Mai,ROASTED FLAVORS ロースターコーヒー,18.8182209,99.0070037
Chiang_Mai,Nap’s Coffee Roaster Lampang,18.279334,99.4810848
Chiang_Mai,Issara Coffee Space,18.7880141,99.0010951
Chiang_Mai,Fernpresso Flagship Store at Suandok,18.7885087,98.9704708
Chiang_Mai,SEUA,18.7828791,99.0149102
Chiang_Mai,Rocktown_Roaster,18.7469267,98.9421935
Chiang_Mai,Doppio,18.8071594,99.0178345
Chiang_Mai,Full Of Happiness Coffee.RB,18.7876553,98.9703329
Chiang_Mai,love earth coffee roastery,18.7885842,98.9663252
Chiang_Mai,Coffee Collection,18.7893895,98.9666632
Chiang_Mai,FOUR floor cafe,18.7989612,98.9711337
Chiang_Mai,Roastniyom Exclusive ราชพฤกษ์ เชียงใหม่,18.7403904,98.9347494
Chiang_Mai,GRAPH Baankangwat,18.7763407,98.9483362
Chiang_Mai,TOYPRESSO,18.7361416,98.9556427
Chiang_Mai,17G. Specialty Coffee • スペシャルコーヒー,18.7374475,98.9615131
Chiang_Mai,Roasto - รสโต,18.7868583,99.0222615
Chiang_Mai,NGEGGEE เง็กกี,18.4201658,98.6773002
Chiang_Mai,Liberate Coffee Roastery,18.7169492,98.9571036
Chiang_Mai,SOLACE,18.7606573,98.971098
Chiang_Mai,Deck 1,18.7895603,99.0041275
Chiang_Mai,Bar Fine - บ่าฟาย,18.7385726,98.9320365
Chiang_Mai,The Extraction (Central Festival),18.806777,99.0177678
Chiang_Mai,Artisan sourdough by apple fahey,18.7808685,98.9541836
Chiang_Mai,ROASTIV,18.7985561,98.9678271
Chiang_Mai,TERROIR.CNX,18.7985929,98.9679554
Chiang_Mai,GRAPH ground,18.7983944,98.97118
Chiang_Mai,Coffice Coffee Roaster,18.7874128,98.9617207
Chiang_Mai,Minimal Coffee Maker,18.7429999,98.9624378
Chiang_Mai,Roastniyom x Set Coffee Roaster,18.7874899,98.9898875
Chiang_Mai,PIMM'S CUP : Roastory Lab,18.7865675,98.9823552
Chiang_Mai,Cherry Monkey Craft Bar,18.7967916,99.0242804
Chiang_Mai,People coffee roasters,18.7649663,98.9933389
Chiang_Mai,Swn,18.6934976,98.9255248
Chiang_Mai,Blue coffee at Agriculture CMU,18.7946179,98.9589291
Chiang_Mai,Minimal coffee - สาขาหนองหอย,18.7610206,99.0115034
Chiang_Mai,Minimal coffee - สาขาWasabi Park,18.7598312,99.0175764
Chiang_Mai,Cafe Caliente,18.7478726,98.9793088
Chiang_Mai,Gusion Coffee Lampang,18.279951,99.479295
Chiang_Mai,keeps.cafe.roastery,18.2788522,99.4792191
Chiang_Mai,SLURP coffee,18.2897204,99.4914304
Chiang_Mai,Mixirista Lampang,18.2686216,99.4671882
Chiang_Mai,Kasem cafe lampang,18.2744771,99.469661
Chiang_Mai,MAHAMITr,18.249671,99.4472159
Chiang_Mai,tenten sukiyaki - テンテン,18.7816632,98.982412
Chiang_Mai,Minimal Coffee Maker,18.7818536,98.9790645
Chiang_Mai,KanVela Craft Chocolate x Bangpun Coffee Bar,18.7962617,98.9680277
Chiang_Mai,NERAMIT COFFEE ROASTER,18.8233738,99.009084
Chiang_Mai,Pacamara (Sweet Factory),18.7999923,99.0193425
Chiang_Mai,IMPresso COFFEE & ET CETERA,18.764179,98.9367304
Chiang_Mai,Hand-Kraft Cafe,18.7523312,99.1048906
Chiang_Mai,di BOSCO COFFEE SPECIALIAST,18.8876196,98.828835
Chiang_Mai,GRAPH TABLE,18.791977,98.9925512
Chiang_Mai,Mai Coffee,18.5749617,99.0076337
Chiang_Mai,Nine One Coffee Premium Handcrafted,19.1155064,99.4634381999999
Chiang_Mai,186 Cafe&Bar,18.892222,99.0123639999999
Chiang_Mai,"Nine-onecoffee, Rim Tan Banmiang, ริมธารบ้านเมี่ยง",19.0449256,99.3416204
Chiang_Mai,Suan Pailom Coffee Roasting,18.826086,98.9513727
Chiang_Mai,Stand Behind Me,18.5779121,99.0063562
Chiang_Mai,THE FIRST VALLEY Coffee Academy,18.9409966,99.3630072999999
Chiang_Mai,Torch Coffee Lab Thailand,18.8136744,98.9738003
Chiang_Mai,Ninebar coffee roasters,18.8413738,99.0222395999999
Chiang_Mai,GRAPH contemporary,18.787225,99.009052
Chiang_Mai,Yellow Crafts: Roast Lab,18.7886336,98.9645238000001
Chiang_Mai,Whales kave,18.7770105,98.947674
Chiang_Mai,Bay's Cafe,18.8060277,98.9615054
Chiang_Mai,Seasonal Coffee​ Roasters,19.0818647,99.9236503
Chiang_Mai,RIS.TLEBLACK N’FRIENDS,18.5879178,99.0106287
Chiang_Mai,Thom Artisan Roastery,18.9026663,98.9089603
Chiang_Mai,Thom artisan coffee,18.8260057,98.9564012
Chiang_Mai,Thepsadej Coffee,18.9455751,99.3584737
Chiang_Mai,Diciotto SlowBar Coffee & TeaRoom,18.7985529,98.9682762
Chiang_Mai,roxpresso private reserve,18.7944845,98.9930547
Chiang_Mai,LOCAL COFFEE,18.8374722,99.0126916
Chiang_Mai,Orange Box Coffee,19.103801,98.820786
Chiang_Mai,Ponganes coffee roasters,18.7906953,98.9842633
Chiang_Mai,Trailer Coffee,18.7669855,99.0261705
Chiang_Mai,WTF Coffee Camp,18.8735846,98.8125843
Chiang_Mai,ROASTNIYOM CRAFT,18.8024041,98.9668453
Chiang_Mai,OSSO COFFEE,18.8001106,98.9683099
Chiang_Mai,tree&co,18.8956085,99.0135343
Chiang_Mai,kame CHIANG MAI คาเมะ เชียงใหม่,18.8002402,98.9877904
Chiang_Mai,Kramfeine : ครามเฟอีน,19.1319425,99.0243955
Chiang_Mai,Tymeslowbar (ไทม์),18.7896203,98.9877213
Chiang_Mai,UTSAH.HOMEBREW,18.8795505,99.3451391
Chiang_Mai,TLAY : A MOMENT LIKE DRIP,18.8708589,98.9383982
Chiang_Mai,IMPROVISE COFFEE​,18.7769454,99.0042149
Chiang_Mai,Roastniyom Exclusive (V Community),18.7989214,99.0328971
Chiang_Mai,Doub Brew,18.8007772,99.0016829
Chiang_Mai,The Extraction Chang Klan,18.7707757,99.0000551
Chiang_Mai,1988 Café,18.8167916,99.0116397
Chiang_Mai,Yody Coffee & Family Specialty Coffee Maerim กาแฟสายน้ำผึ้ง,18.9163651,98.9276425
Chiang_Mai,Buncha's Espresso Bar,18.8096103,98.9956893
Chiang_Mai,Together Coffee & Tea,19.1928852,99.8779911
Chiang_Mai,Gallery Drip Coffee Chiang Mai,18.7902818,98.9867054
Chiang_Mai,Karma:cafe,18.5046709,98.3603075
Chiang_Mai,OtW.cnx,18.8548207,98.9682275
Chiang_Mai,COFFEE TABLE' slow bar,18.837645,98.9805907
Chiang_Mai,Exotic Roasting Coffee,18.8383273,98.9906124
Chiang_Mai,ฤไท - Rue Thai Coffee Roasted,18.9257901,98.9646472
Chiang_Mai,The Extraction Lamphun,18.5856718,99.0096206
Chiang_Mai,THE EXTRACTION SANSAI,18.830772,99.0402124
Chiang_Mai,The Extraction Sanpatong,18.6317203,98.8975621
Chiang_Mai,ร้าน Konjohn coffee slowbar สาขาข้างสวนสัตว์เชียงใหม่,18.8106778,98.9472133
Chiang_Mai,TASTE OF ART,18.817642,98.9566211
Chiang_Mai,Steamer Coffee Roaster,18.7863483,99.0089996
Chiang_Mai,Early Owls・เออร์ลี่ อาวส์,18.8062766,98.9887547
Chiang_Mai,JAI D.I.Y. CAFE,18.7897778,98.9968975
Chiang_Mai,Zeit Roaster - Brewing Lab,18.7831808,99.0035258
Chiang_Mai,khna coffee brewers,18.7928092,99.0020159
Chiang_Mai,WHY Coffee Slowbar,18.9100288,98.9178285
Chiang_Mai,DB​ SLOT​ Home​ Coffee​,18.9088748,98.9148203
Chiang_Mai,olddays,18.8013088,99.0131539
Chiang_Mai,ARABIA COFFEE MUANG LAN NA,18.7930441,98.9897149
Chiang_Mai,WhyD.cnx,18.8215963,98.9618169
Chiang_Mai,TWENTY MAR,18.7892678,98.9879416
Chiang_Mai,Minimal Coffee,18.7941583,99.0256696
Chiang_Mai,Minimal coffee - CMU,18.7925138,98.9526309
Chiang_Mai,Cottontree at One Nimman,18.8001106,98.9683099
Chiang_Mai,Wanna Slowbar,18.7931613,98.9948691
Chiang_Mai,Area 67 Cafe’,19.3692548,98.965242
Chiang_Mai,Also Cafe Chiangmai,18.787227,98.9618325
Chiang_Mai,The Reminder coffee,18.5681993,98.9968482
Chiang_Mai,Aq Bur old town คาเฟ่ย่านเมืองเก่าลำพูน,18.5807059,99.0078987
Chiang_Mai,O-Cha coffee,18.3177499,99.3998097
Chiang_Mai,Bittersweet (Coffee Slow Bar),18.8490321,98.975123
Chiang_Mai,Bittersweet Cafe Lampang,18.2865157,99.4995068
Chiang_Mai,"ร้านชาดอยอินทนนท์, Doi Inthanon Tea Partnership",18.621465,98.5172694
Chiang_Mai,EQUAL TO COFFEE,18.9150073,98.9462386
Chiang_Mai,thursdayespresso,18.7627976,98.9579682
Chiang_Mai,Roasto Entaneer CMU,18.7949842,98.9512328
Chiang_Mai,From Farm to Sip,18.8420602,98.9047418
Chiang_Mai,Somewhere Espresso (어딘가에 에스프레소),18.7843448,98.9966604
Chiang_Mai,ROX Coffee Craft,18.743781,98.9291875
Chiang_Mai,Street Coffee Crew No.3,18.8097543,98.9632126
Chiang_Mai,Capital H Roaster,18.7251001,98.9481467
Chiang_Mai,Exothermic Coffee Roasters,18.8109108,98.9738082
Chiang_Mai,Homey Cafe,18.8959965,98.9662441
Chiang_Mai,ชงเอง - Chong Ayng × Slow bar,19.4278797,98.9534886
Chiang_Mai,Int Sense Coffee Sensation,18.7468141,99.0706882
Chiang_Mai,Note Espresso : Esso Gas Station,18.5893202,99.0422998
Chiang_Mai,Bella Goose Cafe on the Pond,18.7097473,98.977333
Chiang_Mai,Bella Goose Cafe at the Hill,18.781236,98.9989615
Chiang_Mai,General coffee,18.7896578,98.9645828
Chiang_Mai,Ninebar Coffee Roaster; Business Park,18.7975532,99.0242949
Chiang_Mai,Sus Beans at Paper Butter on the roof,18.7915227,98.9981466
Chiang_Mai,PaKa Coffee Papae Lamphun,18.1791529,98.7908581
Chiang_Mai,เติบโต Speciality Handcraft,18.5554882,99.0575184
Chiang_Mai,Help me grind Slowbar,18.9071175,99.0140851
Chiang_Mai,Hippodrome x Cmmk,18.7978442,98.9710413
Chiang_Mai,UREI (อู้เร่ย) Motorbike rental chiang mai & Coffee มอเตอร์ไซค์เช่า เชียงใหม่,18.7990426,98.971883
Chiang_Mai,TOONGs COFFEE at Sirimang,18.7970257,98.9707691
Chiang_Mai,Perfect Blend Coffee Roaster(Sanpakoi Branch),18.7915317,99.0120191
Chiang_Mai,MOO Coffee @One Nimman,18.7999632,98.9686095
Chiang_Mai,MOO Coffee @Thinkpark,18.800942,98.9674315
Chiang_Mai,MOO Coffee @Santitham มูคอฟฟี่ สันติธรรม,18.8051662,98.9771917
Chiang_Mai,Skugga Estate - One Nimman Branch,18.7999391,98.9680483
Chiang_Mai,Skugga Estate - Tapae Gate Branch,18.7870442,98.9935394
Chiang_Mai,Baristaneer (บาริสทาเนียร์ คาเฟ่ แอนด์ อคาเดมี่),18.9191915,98.967665
Chiang_Mai,Cypress Lanes,18.7908059,98.8404283
Chiang_Mai,Riso Space,18.7843451,98.9819633
Chiang_Mai,MOO Coffee @Thinkpark,18.800942,98.9674315
Chiang_Mai,Minimal coffee - Kad Thanin,18.8047623,98.9843266
Chiang_Mai,Phupanna Coffee,18.8584937,99.2750312
Chiang_Mai,Buncha's Espresso Bar,18.8072706,98.9953542
Chiang_Mai,Around 18 grams,18.8810553,99.0349954
Chiang_Mai,Hilltown cafe,18.8396794,98.9843851
Chiang_Mai,Green Roasters,18.8043933,98.9872964
Chiang_Mai,สุขมีดีชา:Sukmee Deecha Fresh Tea & Juice,18.8343538,99.0566882
Chiang_Mai,M8 Specialty coffee,18.2809003,99.4821443
Chiang_Mai,MATE contemporary & Roaster,18.2788959,99.479799
Chiang_Mai,Minimal coffee - บวกครก,18.7819022,99.0353197
Chiang_Mai,Fringe.th,18.794169,99.0011765
Chiang_Mai,FAV' coffee - roaster at CMU,18.7925278,98.9525831
Chiang_Mai,Goodneighbor Cafe,18.8148744,98.9720822
Chiang_Mai,Sway CNX - Rooftop Artisan Coffee and Smoothie Bowls,18.7967179,98.9692774
Chiang_Mai,ma lune (มาลูน) Specialty Coffee Roaster,18.7774972,98.9836757
Chiang_Mai,TASANA ทสฺสน,19.3663413,98.926635
Chiang_Mai,LOG COFFEE & TEAK FURNITURE,18.7872649,99.0066576
Chiang_Mai,Roastniyom Exclusive เจริญเมือง,18.7869744,99.0081312
Chiang_Mai,The Extraction Kaewnawarat,18.7944943,99.0018349
Chiang_Mai,bar Slow Bar Zapacoffee ซะป๊ะกาแฟ Specialty Coffee,18.799719,98.9683684
Chiang_Mai,Rim Coffee Roaster No.01 สาขา สนามกอล์ฟล้านนา,18.8238004,98.9801278
Chiang_Mai,Rim Coffee Roaster No.02 สาขา แยกข่วงสิงห์,18.8128537,98.9836173
Chiang_Mai,ศุข๖๖ A BLISSFUL (adj) เต็มไปด้วยความสุข HOME CAFE AND ARTS,18.8093303,98.9802038
Chiang_Mai,RUBBER KILLER FLAGSHIP STORE,18.7967618,98.9683377
Chiang_Mai,Rico rico,18.7867649,99.0088243
Chiang_Mai,Dorle,18.823923,98.9626312
Chiang_Mai,Toki Coffee est. 1968,18.8117327,98.9601962
Chiang_Mai,Have You Bean,18.8018909,98.9750616
Chiang_Mai,Keane Coffee and Guest House.,18.8058347,98.9905254
Chiang_Mai,Hippo Coffee at Little Shelter Hotel Chiang Mai,18.7739736,99.0051433
Chiang_Mai,under over cafe,18.7889527,98.9703779
Chiang_Mai,Annie Coffee Roaster Rak Thai Village,19.5850997,97.9467457
Chiang_Mai,Gung Mog Kaam craft & arts studio - กุงหมอกคามสตูดิโอ,19.3617194,98.4525994
Chiang_Mai,Roaster Star,18.7187803,98.9588352
Chiang_Mai,Craftfee Cafe' & Roaster,18.6403482,98.9198729
Chiang_Mai,cieste.cnx,18.7927481,98.9986248
Chiang_Mai,bays coffee @113 Compound,18.7964542,99.0082831
Chiang_Mai,THE EXTRACTION SANSAI,18.8243367,99.035629
Chiang_Mai,Extraction Exsclusive,18.7855879,98.971714
Chiang_Mai,The Extraction @TCA space สันติธรรม,18.8048665,98.9751002
Chiang_Mai,SON IN LAW Homebrewing,18.7847851,99.0313756
Chiang_Mai,SIRI HOME CAFE,18.5786099,99.0715001
Chiang_Mai,Light Beverage and MORE,18.7693892,99.001484
Chiang_Mai,PIMM'S CUP,18.803126,98.9600929
Chiang_Mai,Mamo Coffee and Community,18.8742791,99.1422457
Chiang_Mai,% Arabica Chiang Mai One Nimman,18.7998119,98.9680575
Chiang_Mai,Minimal Coffee,18.7326546,98.9521623
Chiang_Mai,Blue Coffee At Old Town,18.7881993,98.9887018
Chiang_Mai,Hang & Craft cafe,18.7882495,98.988135
Chiang_Mai,RAT Coffee,18.756186,98.9716455
Chiang_Mai,yourmood.cnx,18.7890338,98.9801744
Chiang_Mai,289 Coffee,18.7720059,98.974748
Chiang_Mai,AREA 27,18.7881699,98.9908117
Chiang_Mai,The Tap Brewing Chiangmai,18.8179146,99.0098227
Chiang_Mai,Cafe De Mountain,18.85438,98.700275
Chiang_Mai,af pheromones café,18.703348,99.0599495
Chiang_Mai,Blue Coffee At Nimman,18.799078,98.9672408
Chiang_Mai,Blue Coffee At MaeJo,18.8980507,99.0080222
Chiang_Mai,"Earth&Fire Co.,Ltd. (สาขาเชียงใหม่)",18.804661,99.0055087
Chiang_Mai,minimal coffee สาขาแม่โจ้,18.8937742,99.0097419
Chiang_Mai,Minimal coffee - Chetyod,18.8078982,98.9652252
Chiang_Mai,Wind and Water,18.8046659,99.0055106
Chiang_Mai,Well Coffee Station,18.8152581,98.9831828
Chiang_Mai,Mountain cafe & bakery,18.8100321,98.9955021
Chiang_Mai,Fav. coffee roaster - Umong,18.7884945,98.9548312
Chiang_Mai,Starbucks reserve Nimman soi3,18.7992945,98.9673267
Chiang_Mai,TANN,18.7986851,98.9695375
Chiang_Mai,บ้านสมาธิ - Baan Samadhi,18.8996822,99.2383842
Chiang_Mai,5Dimensions Specialty coffee,18.7771051,99.0226135
Chiang_Mai,Minimal coffee สาขาสารภี,18.7499009,99.0099592
Chiang_Mai,Minimal coffee มหิดล,18.7646305,98.9921681
Chiang_Mai,Refine Coffee Roaster.TCDC,18.7952528,98.9963027
Chiang_Mai,UNBU Specialty Coffee,18.7547023,98.9934158
Chiang_Mai,Slow Drip Coffee Sanpatong,18.6410606,98.835572
Chiang_Mai,KARMA.CNX,18.7890306,98.9902966
Chiang_Mai,TEDS Coffee & Eatery,18.783963,98.9542731
Chiang_Mai,FRIENDS CAFE,18.7969896,98.9684465
Chiang_Mai,Haus Coffee,18.7246833,98.9448999
Chiang_Mai,GonGlonCoffee,18.753812,98.9953118
Chiang_Mai,NAMA Coffee Slow Bar,18.8463334,98.9697436
Chiang_Mai,November.handberw,18.8453896,98.9677452
Chiang_Mai,DÉJÀ Brew Café and Gallery,18.7839983,99.0123712
Chiang_Mai,Anda.Warin,19.3638062,98.9327795
Chiang_Mai,อยู่ป่า - Yoo Pha Bar & Cafe,18.8995954,99.0272562
Chiang_Mai,NO WORRIE’S - Your Everyday Escape. Cafe&Bar,18.7965733,98.9664205
Chiang_Mai,Scout.Coffee.Roaster,18.2863394,99.4723405
Chiang_Mai,Elite cafe’ ร้านกาแฟหลัง มช เชียงใหม่,18.7876044,98.9572996
Chiang_Mai,Thong-Urai Cafe & Paw Made Painting,18.785067,98.9696088
Chiang_Mai,Akha Ama Coffee ( The New Original ),18.7940044,98.9926331
Chiang_Mai,Tula slowbar,18.788085,98.9691068
Chiang_Mai,Boy Slow Bar Coffee,18.7726927,98.9855763
Chiang_Mai,เปล่ง Slow Bar,18.7997382,99.0141021
Chiang_Mai,Slow bar cafe’หน้าตึก,18.804716,98.9800886
Chiang_Mai,บุญมีกาแฟสด slow bar,18.8091636,98.9600183
Chiang_Mai,กาแฟสด AMPON COFFEE SLOW BAR,18.8069627,98.9686867
Chiang_Mai,Urge!!Sunday slow-bar,18.7772629,98.989108
Chiang_Mai,Artisan Cafe',18.7758881,98.9821296
Chiang_Mai,ARTISAN,18.7995927,98.9776552999999
Chiang_Mai,Thom Artisan Coffee,18.7659106,99.0366775
Chiang_Mai,9th Street Cafe,18.797463,98.968244
Chiang_Mai,Caffeine Fix,18.7894296,98.9902604
Chiang_Mai,Somkiat Style Cafe,18.7715,98.9415
Chiang_Mai,Taxidermy Cafe,18.7885189,98.9624302
Chiang_Mai,Nimmanian Club,18.7961677,98.968339
Chiang_Mai,The Brewing Room,18.794052790475,99.0367653826248
Chiang_Mai,Thachang Hill,18.800936858564,98.8307172060011
Chiang_Mai,The Barisotel,18.79765,98.96802
Chiang_Mai,No. 39 Cafe,18.78022,98.95154
Chiang_Mai,FABB Coffee Roasters,18.770665,98.9500949999999
Chiang_Mai,One Day Drip Cafe,18.79465,98.9861559999999
Chiang_Mai,The After taste drip Coffee,18.8655045,99.350884
Chiang_Mai,All About Coffee Pai,18.7637175,98.9503162
Chiang_Mai,Daddy's Antique cafe and restaurant,18.7453811,98.9554272
Chiang_Mai,Nitro Cafe Chiangmai,18.7931966,98.9731291000001
Chiang_Mai,Appuru espresso bar,18.787529892296,98.9521837234499
Chiang_Mai,Factory Coffee,18.7843726,98.9539939
Chiang_Mai,Thesis Coffee,18.8069446,98.9573627
Chiang_Mai,Maled coffee bar,18.8077621,98.9576403
Chiang_Mai,รื่นอารมย์ Ruen-A-Rom,18.7848382,98.9532045999999
Chiang_Mai,BEGIN AGAIN,18.778657,98.948533
Chiang_Mai,Artisan (One Nimman),18.8001599,98.9684916
Chiang_Mai,Artistic Lab,18.8115706,98.9786667999999
Chiang_Mai,nuan cafe & bistro,18.787016,98.989698
Chiang_Mai,Romano Coffee Studio,18.7814821,98.9900474999999
Chiang_Mai,Street Coffee Crew,18.8120431,98.9690531
HCMC,Shalom Coffee (The Vista),10.8052746,106.7516881
HCMC,Vietcetera Cafe Nguyen Trai (kiosk),10.7710023,106.6925222
HCMC,Siêu Thị Cà Phê Việt Nam - Sieuthicafe.vn,10.7670568,106.6893093
HCMC,O'hara Coffee- Cafe and Beverage,10.7375086,106.7290902
HCMC,[a] coffee at RedDoor,10.7893754,106.6766729
HCMC,brave bean coffee roastery,10.7996718,106.6502129
HCMC,Les Monts,10.7705966,106.7043562
HCMC,Phin & Bean Roastery,10.7794352,106.7004783
HCMC,RedDoor in D1 Specialty Coffee,10.775706,106.703207
HCMC,Trekker Café,10.7898713,106.6994306
HCMC,Infinity Coffee,10.774418,106.704611
HCMC,Bolaven Coffee,10.7839338,106.7002491
HCMC,Talk Barista Saigon - Organic & Specialty Coffee,10.777464,106.689818
HCMC,B Coffee Lounge,10.7867106,106.6784236
HCMC,Fugashin Coffee,10.778506,106.6923831
HCMC,WIMI Specialty Coffee & Tea,10.7236782,106.7093327
HCMC,Mori Coffee,10.8068198,106.7345273
HCMC,The Hummingbird Cafe,10.781018,106.707155
HCMC,Okkio Caffe,10.7724634,106.6989358
HCMC,UCC COFFEE ROASTERY,10.790559,106.7183781
HCMC,Wego Coffee,10.7822256,106.6891435
HCMC,NOMAD Cold Brew Coffee,10.7763405,106.6903311
HCMC,Ollin Coffee,10.7386846,106.7142284
HCMC,Ollin Cafe Premium,10.8037331,106.7320246
HCMC,Jeepgo Coffee - Tropical Specialty Coffee,10.9736111,106.6656188
HCMC,INTENSO COFFEE ROASTER,10.8374118,106.6278039
HCMC,Epic Coffee Roaster,10.7787684,106.6882096
HCMC,Saigon Coffee Roastery 3,10.7777782,106.7023726
HCMC,Bộ Lạc Craft Coffee Roasters at Nông Trại Khoai (Farm Potatoes),10.790227,106.7118982
HCMC,The Running Bean,10.7728584,106.7032662
HCMC,SoSo Coffee,10.7893803,106.7183315
HCMC,Coco Outpost,10.7970885,106.686765
HCMC,Thiên Hạt specialty coffee,10.7925644,106.7016238
HCMC,Danshari Coffee,10.7736115,106.6959963
HCMC,Danshari Coffee Cho Lon,10.7591004,106.6674078
HCMC,Lacàph Roastery,10.811242,106.7351769
HCMC,Lacàph Bar,10.7755861,106.7033309
HCMC,Lacàph Space,10.7679965,106.7004542
HCMC,Bosgaurus Coffee Roasters- The Opera House,10.7794815,106.7059074
HCMC,Rang Rang Coffee - Hồ Tùng Mậu,10.7705126,106.7044603
HCMC,Rang Rang Coffee - Hai Bà Trưng,10.7779966,106.7036645
HCMC,Rang Rang Coffee - Châu Văn Liêm,10.7537416,106.6587082
HCMC,Cà Phê Rang Mộc Hạt và Bột DakLak,10.7835406,106.6633198
HCMC,Rang Rang Coffee - Lotte Mart,10.7410229,106.702043
HCMC,Rang Rang Coffee - Diamond Island,10.7783591,106.7473617
HCMC,Rang Rang Coffee - Phú Mỹ Hưng,10.7265524,106.7079269
HCMC,innominatus speciality coffee,10.7735905,106.702314
HCMC,Rang Rang Cafe,10.7300375,106.7033594
HCMC,La Viet Coffee Saigon,10.7763386,106.6892152
HCMC,Là Việt Coffee Saigon (57A Tú Xương),10.7775793,106.683654
HCMC,Là Việt Coffee Sài Gòn (Trần Quang Diệu),10.786313,106.6782733
HCMC,Every Half Coffee Roasters Tu Xuong,10.782507,106.6880718
HCMC,Every Half Nguyễn Văn Thủ,10.7861247,106.6955926
HCMC,Every Half Coffee Roasters Binh An Water Bus Station,10.7973056,106.7287807
HCMC,Every Half Coffee Roasters,10.784758,106.6939609
HCMC,Every Half Võ Thị Sáu,10.7829263,106.6851164
HCMC,The Hummingbird Café & Roastery,10.7864174,106.6910119
HCMC,GrandMUM cafe,10.7889169,106.6915731
HCMC,Hoff Coffee Brewers,10.7772168,106.7001816
HCMC,The Running Bean Phan Xích Long - Coffee and Brunch,10.7981952,106.6881104
HCMC,The Running Bean Mạc Thị Bưởi - Coffee and Brunch,10.775249,106.704888
HCMC,Every Half Coffee Roasters - Ngô Văn Năm,10.781316,106.705831
HCMC,Every Half Coffee Roasters - The Hallmark,10.7778131,106.7138961
HCMC,Every Half Coffee Roasters - Trương Định,10.7766859,106.6912394
HCMC,Every Half Coffee Roasters - Pasteur,10.7703936,106.7028807
HCMC,"% Arabica Ho Chi Minh City, Cafe Apartment",10.7740857,106.7041064
HCMC,Arabica Ho Chi Minh City Roastery,10.7794729,106.7001474
HCMC,Shalom Coffee (Tropic Garden),10.8138554,106.7287954
HCMC,Shin Coffee,10.7715923,106.6977197
HCMC,The Yellow Chair Specialty Coffee,10.7780014,106.6908714
HCMC,Vietnam Coffee Republic - the Bar & Showroom,10.7790684,106.7049144
HCMC,Shin Coffee,10.7751629,106.703361
HCMC,SaiGon Coffee Roastery,10.775661,106.703161
HCMC,The Workshop Coffee,10.7734252,106.7055736
HCMC,Vietcetera Cafe,10.7732547,106.6887975
HCMC,Shin Coffee 2,10.774543,106.705197
HCMC,[a] coffeehouse,10.7905962,106.6968708
HCMC,The Coffee House Signature,10.7836913,106.6945123
HCMC,Just Coffee (Shalom Coffee Roasters),10.8031181,106.7327329
HCMC,Vietnam Coffee Republic (House),10.7795777,106.7047307
HCMC,Vietcetera (at the Saigonais boutique),10.774644,106.6980845
HCMC,AMA (Amazing) Coffee,10.7732441,106.6989486
HCMC,Shin Coffee 3,10.806806516071,106.73460384205
HCMC,Bosgaurus Coffee,10.7889571,106.720714
HCMC,KC- A Coffee Bistro,10.7644233,106.7047866
HCMC,Saigon Coffee Roastery 2,10.7696347,106.697454
HCMC,Anh coffee roastery,10.7829311,106.6934913
HCMC,Rang Rang Coffee - Thảo Điền,10.8015699,106.7381124
HCMC,96B cafe & roastery,10.790111,106.6967004
HCMC,Là Việt Coffee Saigon (Hai Bà Trưng),10.785765,106.6936042
Nicosia,BREW LAB,35.166941,33.3582249999999
Nicosia,Kivu Speciality Coffee ltd,35.1528377,33.3647624
Nicosia,A κχoffee project,35.16646,33.366509
Nicosia,The Daily Roast,35.1623056,33.3626354
Kigali,Question Coffee Bar,-1.954749,30.081043
Kigali,Huye Mountain Coffee,-2.5467218,29.6922228000001
Kigali,Inema Cafe'/Rwandan Speciality coffee,-1.94687,30.09118
Kigali,Café Neo,-1.9499006,30.0920275
Kigali,Inzora Rooftop Café,-1.9497914,30.0912279
Kigali,Bourbon Coffee (MTN Branch),-1.9405397,30.1033115
Kigali,Bourbon Coffee (UTC Branch),-1.9453756,30.0613885
Kigali,Bourbon Coffee (MTN Branch),-1.9405397,30.1033115
Kigali,Bourbon Coffee (Airport Branch),-1.963042,30.135014
Khon_Kaen,Sri Brown Cafe,16.4603999,102.8284119
Khon_Kaen,Eights A Day x Lak Mueang,16.4292144,102.8269729
Khon_Kaen,Bluekoff khonkaen,16.4155528,102.8323712
Khon_Kaen,Vector Coffee Roaster,16.447753,102.8038869
Khon_Kaen,Doubleshot X Khonkaen,16.422722,102.8377194
Khon_Kaen,Tibbetts Coffee House,16.4826006,102.8391208
Khon_Kaen,Sri Brown Cafe@Complex KKU,16.4779048,102.8232286
Khon_Kaen,ACraft​ Coffee​ Roaster​,16.4595138,102.8234706
Khon_Kaen,Just Follow the Goat,16.4677565,102.8344647
Khon_Kaen,Just Follow The Goat X The Goat Cafe’ at Khonkaen,16.4349513,102.8109732
Khon_Kaen,Eights A Day x Adulyaram,16.4617978,102.8265561
Khon_Kaen,Red and Brew Coffee,16.4358634,102.8363142
Khon_Kaen,Map Cafe',16.4311637,102.852005
Khon_Kaen,Brew Planet,16.4433391,102.8272961
Khon_Kaen,inch & ounce,16.4495323,102.830935
Khon_Kaen,Gravity Coffee Space,16.4765229,102.8309
Khon_Kaen,SLOVE U COFFEE ROAST HOUSE,16.4210796,102.8371993
Khon_Kaen,CANDID Cafe,16.4426526,102.7934544
Khon_Kaen,Mister Lee,16.4339724,102.8248335
Khon_Kaen,Ultra Coffee Rosters Khonkean,16.428929,102.8366185
Khon_Kaen,Prodigy.Coffee,16.4100353,102.8406013
Khon_Kaen,Nap's coffee x roaster intown,16.4357663,102.8343308
Khon_Kaen,Nap's Coffee x Khonkaen,16.4563305,102.8225946
Lviv,Svit Kavy na Rynku,49.8418475,24.0305664
Lviv,Black Honey,49.8392905,24.0252948
Lviv,Svit Kavy,49.840444,24.03068
Lviv,Alternative Coffee,49.836974,24.0219879
Lviv,Svit Kavy Roastery,49.8270707,23.9903319
Lviv,Chekhovych,49.8317342,23.9965747
Lviv,Blackwood Coffee & Burger,49.843885,24.030927
Lviv,Humdrum Cafe Lviv,49.8379265,24.041307
Lviv,Point 6,49.8303783,23.9939563
Lviv,Kavoteka,49.7738994,24.0112397
Lviv,KARP coffee,49.8421288,24.0259506
Lviv,Lviv Coffee Manufacture,49.8399893,24.031412
Lviv,Lviv coffee manufacture (Valova),49.8398864,24.0335396
Vienna,CoffeePirates,48.2173845,16.3511695
Vienna,J. Hornig Kaffeebar,48.2020333,16.3521496999999
Vienna,Jonas Reindl Coffee Roasters,48.201725,16.3455038
Vienna,Kaffemik,48.1991539,16.3509685
Vienna,Kaffeemodul,48.2096067,16.3484824
Vienna,kaffeefabrik,48.1959917,16.3684218999999
Vienna,"POC Cafe ""People on Caffeine""",48.2145809,16.3529368
Vienna,Supersense GmbH,48.2169248,16.3892417
Vienna,CaffèCouture,48.2111819,16.3656016
Vienna,Kaffee von Sascha,48.1918063,16.3568556
Vienna,Caffé A Casa,48.2112755,16.3726411
Vienna,Caffè a Casa,48.2196426,16.3644452999999
Vienna,Balthasar Kaffee Bar,48.214837,16.385304
Vienna,Jonas Reindl,48.2149624,16.3617342
Vienna,Fürthkaffee,48.2044242,16.351686
Vienna,Vienna School of Coffee,48.219402,16.3665619999999
Vienna,Vienna School of Coffee,48.2218159,16.3653666
Vienna,Café EL.AN,48.2147437,16.3698886
Vienna,Fenster Cafe / third wave coffee shop / specialty coffee / best coffee in Vienna,48.2107779,16.3771948999999
Vienna,Café Espresso,48.2040719,16.3499526000001
Vienna,Wolfgang Coffee,48.201619,16.345222
Vienna,GOTA Coffee experts,48.1914216,16.3268891
Ljubljana,Črno Zrno Specialty Coffee,46.0466592,14.5076601000001
Ljubljana,Stow specialty coffee shop,46.0468426,14.5041324
Ljubljana,Mala Pražarna,46.045057,14.5050876
Ljubljana,Cafe Čokl,46.0505626,14.5100585
Ljubljana,ESCOBAR Specialty Coffee Roasters,45.9614584,14.2832949
Ljubljana,Kavarna Moderna,46.0531196,14.498602
Ljubljana,Kavarna NATURA,46.060983,14.5280044
San_Diego,Caffe Calabria,32.749206,-117.12983
San_Diego,James Coffee Co.,32.729197,-117.1703119
San_Diego,Bird Rock Coffee Roasters,32.7280124,-117.1709463
San_Diego,Bird Rock Coffee Roasters,32.7713621,-117.2021274
San_Diego,Lofty Coffee Encinitas Roasting Works,33.049504,-117.2939625
San_Diego,Bird Rock Coffee Bar,32.8144797,-117.2697071
San_Diego,Lofty Coffee Solana Beach Cafe`,32.9911585,-117.2701994
San_Diego,Lofty Coffee Little Italy Cafe and Bakery,32.7220998,-117.1672365
San_Diego,Lofty Coffee Company (Encinitas),33.049715,-117.294667
San_Diego,Cafe Virtuoso,32.7040706,-117.1495314
San_Diego,Ryan Bros Coffee Inc (Main St),32.6992562,-117.1466993
San_Diego,Ryan Bros Coffee (Airport),32.7322914,-117.1984627
San_Diego,Ryan Bros Coffee (Temecula),33.5259166,-117.1496108
San_Diego,Ryan Bros Coffee (San Marcos),33.1398633,-117.1625062
San_Diego,Ryan Bros Coffee (Petco Park),32.70721,-117.1570542
San_Diego,Cafe Moto,32.6956607,-117.137746
San_Diego,Elixir Espresso Bar (Downtown),32.7165056,-117.1604764
San_Diego,Elixir Espresso & Wine Bar (La Plaza),32.846409,-117.274131
San_Diego,Elixir Espresso Bar (Westfield UTC),32.8717233,-117.2097336
San_Diego,Elixir Espresso & Wine Bar (Westfield North County),33.070471,-117.0649122
San_Diego,Dark Horse Coffee Roasters,32.763486,-117.123387
San_Diego,Dark Horse Coffee Roasters,32.7471805,-117.1304319
San_Diego,Dark Horse Coffee Roasters,32.7140301,-117.1398649
San_Diego,Pannikin Coffee & Tea,32.8402704,-117.2721447
San_Diego,Pannikin Coffee & Tea,33.0583013,-117.2996337
San_Diego,The Swell,32.7855106,-117.252931
San_Diego,The WestBean Coffee Roasters,32.715927,-117.16242
San_Diego,The WestBean Coffee Roasters,32.78152,-117.09952
San_Diego,The WestBean Coffee Roasters,32.7402096,-117.2112623
San_Diego,Ladies & Gentleman Coffee Roasters,32.7177164,-117.1355067
San_Diego,Ironsmith Coffee Roasters,33.0465475,-117.2941814
San_Diego,Communal Coffee,32.7483084,-117.1391773
San_Diego,Heartwork Coffee Bar,32.7495748,-117.1712266
San_Diego,Copa Vida,32.709244,-117.1562531
San_Diego,Holsem Coffee,32.7481656,-117.1307867
San_Diego,Hawthorn Coffee,32.7626701,-117.1297082
San_Diego,Moniker Coffee Co,32.7409619,-117.2112133
San_Diego,Duet Coffee,32.766955,-117.058386
San_Diego,Kettle & Stone,32.7515909,-117.1782815
San_Diego,Manzanita Roasting Company,33.0328078,-117.0469739
San_Diego,Black Rock Coffee Bar,33.1940508,-117.355758
San_Diego,Krakatoa,32.7174897,-117.1405609
San_Diego,Bean Bar,32.708517,-117.15484
San_Diego,Bird Rock Coffee Roasters,32.7965401,-117.2546137
San_Diego,Mnemonic Coffee,32.732609,-117.1606254
Cleveland,Rising Star Coffee Roasters (Little Italy),41.5039739,-81.6004553
Cleveland,Rising Star Coffee Roasters (The Arcade),41.5007112,-81.6909741
Cleveland,Phoenix Coffee Co (East 9th),41.5015038,-81.6882367
Cleveland,Passengers Cafe,41.4829931,-81.7028128
Cleveland,Vintage Tea & Coffee,41.5017256,-81.6850059
Cleveland,Loop (Tremont),41.4823879,-81.6896239
Cleveland,Heritage Coffee,41.3874527,-81.4399981
Cleveland,Lekko Coffee,41.4909545,-81.7079869
Cleveland,Heartwood Coffee Roasters,41.4303717,-81.3910834
Cleveland,Six Shooter Coffee,41.57129,-81.5684612
Cleveland,Crooked River Coffee Company,41.5415621,-81.4439321
Cleveland,"Caruso's Coffee, Inc.",41.281339,-81.644313
Cleveland,Rising Star Coffee Roasters (Hingetown),41.4892056,-81.7103997
Cleveland,Rising Star Coffee Roasters (Fairmont Creamery),41.480453,-81.6958604
Cleveland,Rising Star Coffee Roasters (The Roastery),41.4706353,-81.7096578
Cleveland,Rising Star Coffee Roasters (Lakewood),41.477292,-81.784374
Cleveland,Phoenix Coffee Co (Ohio City),41.4843188,-81.7088483
Cleveland,Phoenix Coffee Co (Roastery) - not a cafe,41.5074408,-81.6824466
Cleveland,Phoenix Coffee Co (Coventry),41.5107606,-81.5797727
Cleveland,Phoenix Coffee Co (Lee),41.497391,-81.5648764
Cleveland,The Root Cafe,41.4851374,-81.8020788
Cleveland,Gypsy Beans & Baking Co,41.4839054,-81.7299832
Cleveland,Heartwood Coffee Roasters,41.237315,-81.438921
Cleveland,Caffeine Lakewood,41.4849585,-81.7986634
Cleveland,Heartwood Roastery,41.4209578,-81.3862293
Cleveland,Troubadour Coffee Roasters,41.4447111,-81.8570807
Cleveland,Cleveland Coffee Company,41.5139575,-81.6723078
Cleveland,Tame Rabbit Specialty Coffee & Roaster,41.4259676,-81.3732958
Cleveland,Edda Coffee Roasters,41.484044,-81.7029871
Cleveland,Duck Rabbit Coffee,41.4801392,-81.7147703
Cleveland,Duck rabbit coffee roastery,41.5206374,-81.6613085
Cleveland,Lekko Coffee,41.4993268,-81.6995037
Cleveland,Heartwood Coffee Roasters,41.4522827,-81.4866109
Cleveland,Blue Sky Brews,41.5039781,-81.6005179
Cleveland,Erie Island Coffee Co. (Detroit Ave.),41.4819954,-81.8363633
Cleveland,Erie Island Coffee Co. (East 4th),41.4990706,-81.68983
Cleveland,Equal Exchange Coffee Bar in Heinen's Downtown Cleveland,41.500089,-81.686346
Cleveland,A.J. Rocco's,41.498474,-81.6861464
Ankara,Prod Coffee & Roastery,39.9281364,32.824486
Ankara,Rate of Rise (ROR) Cafe & Roastery,39.921956,32.825651
Ankara,f451 Brew,39.909227,32.8605749999999
Ankara,Bosco e caffè tiramisù,39.928468,32.81942
Ankara,Rispetto Coffee Co.,39.923023,32.8252
Ankara,C.R.O.P Coffee Shop,39.9066226,32.8616268000001
Ankara,Guzu Coffee,39.906256,32.862174
Ankara,True Specialty Cofffee,39.9280856,32.8260394
Ankara,Kakule Kahve,39.9149191,32.8577918999999
Ankara,Aya Coffee & Roastery,39.8978156,32.853367
Ankara,Padam Coffee Shop,39.902627,32.8598950000001
Ankara,Koala Coffee Shop,39.906831,32.861678
Ankara,Sloth Coffee Shop,39.9008731,32.8531031
Ankara,Celsius Coffee Roastery & Brewery,39.879872,32.687822
Ankara,Barcha Coffee & Roastery,39.9501679,32.7719018
Ankara,Espressolab Beşevler,39.9321554,32.8278113
Ankara,Espressolab Armada,39.9126473,32.8090347
Ankara,Espressolab Maidan,39.9100993,32.7625223
Ankara,Coffee Craft Town,39.8958989,32.7051682
Ankara,Coffee Project,39.9173186,32.8175491
Ankara,Paper Roasting Coffee & Chocolate,39.909695,32.858467
Ankara,The Coffee Grinder Ankara,39.9150978,32.8579124
Rotterdam,Man met bril koffie,51.93055,4.47411310000007
Rotterdam,Hopper Noord,51.932047,4.48559399999999
Rotterdam,Hopper Coffee Rotterdam,51.9165015,4.48027690000004
Rotterdam,NINE BAR espresso,51.922152,4.48801000000003
Rotterdam,Lokaal,51.9263501,4.47884599999998
Rotterdam,Harvest Coffee Brewers,51.9157521,4.48581910000007
Rotterdam,COPPI Coffee & Cycling,51.9319131,4.4711787
Rotterdam,Mecca,51.930118,4.48053010000001
Rotterdam,Booon,51.9272372,4.47275999999999
Rotterdam,DeKoffiebar,51.919051,4.475909
Rotterdam,Coffeelicious Rotterdam (breakfast - lunch - high tea - coffee),51.9138163,4.46454990000007
Rotterdam,Picknick Rotterdam,51.922084,4.48943399999996
Rotterdam,Urban Espresso Bar,51.9133401,4.46025980000002
Phuket,CAMPUS COFFEE ROASTER,7.8849231,98.3873051
Phuket,Witthaya Home Brewing,7.9000383,98.3842417
Phuket,Bookhemian,7.8848049,98.3888648
Phuket,sync coffee bar & roastery,7.9501705,98.2808223
Phuket,ROOF Pudding and Cafe,7.8844216,98.3874812
Phuket,Ketho Coffee & Kitchen,7.9038348,98.3523308
Phuket,Dou Brew Coffee & Craft,7.8853142,98.3891217
Phuket,HOCK HOE LEE - Phuket Town,7.883485,98.384571
Phuket,Ryn - Authentic Tea & Slow Drop Coffee,7.8849588,98.3872802
Phuket,RUSH Coffee Rommani,7.8856822,98.389115
Phuket,Good Vibes P-Town,7.8851247,98.3874885
Phuket,Drawing Room Coffee and Gallery,7.8835346,98.389516
Phuket,Made In Blue Cafe & Bistro Phuket,8.017042,98.339162
Phuket,ASAP CAFE PHUKET,7.9895355,98.3090486
Phuket,Phuket Coffee Lab,7.9954827,98.304804
Phuket,Aram Coffee & Crepes,7.8173175,98.3012202
Phuket,Makai Cafe and Space,8.3920873,98.2616874
Phuket,Zigma Espresso,8.2911955,98.3034841
Phuket,LAYER'S espresso bar,7.885112,98.3907923
Phuket,Day & Night Of Phuket,7.8859613,98.3910656
Phuket,"BARTELS Phuket - Craft Bread, Coffee & Juicery",7.995085,98.3054723
Phuket,Ei-Te,7.979842,98.3333455
Phuket,Kanin,7.9991475,98.3062402
Phuket,Shan : coffee,7.8856556,98.3859641
Phuket,The Shelter Coffee Phuket,7.8863716,98.3859306
Phuket,หว่านไจ๋ - Wan Chai (Grindsize Coffee.Wanchai),7.8859614,98.3876765
Phuket,sri the shophouse,7.8859705,98.3863362
Phuket,GRAPH Phuket,7.883698,98.390528
Phuket,HAO SPECIALTY COFFEE,7.8837142,98.394811
Phuket,LAiiKAA SLOWBAR,8.0189141,98.3236936
Phuket,ASTERISK ESPRESSO,7.874549,98.3891576
Phuket,HAO Specialty Coffee - Samkong,7.9040766,98.3777828
Phuket,Honest Coffee & Service,7.9109098,98.3929952
Phuket,The 5th Element - Phuket,7.8860422,98.3853973
Phuket,Chern cup coffee,8.086635,98.295256
Phuket,Saifah Society,8.727428,98.2272107
Phuket,ASTERISK ESPRESSO PHANGNGA,8.2537712,98.3117587
Phuket,Liang’s : Home Of Specialty Coffee,8.0326961,98.3256278
Phuket,Tree O’clock Cafe & Bistro,7.9974741,98.3271128
Phuket,Cuppa,7.9364848,98.3791908
Phuket,linēn's oven,8.6681995,98.2528553
Phuket,MŌMUS coffee,7.8836836,98.390559
Phuket,Shuffle Cafe & bistro,7.8987837,98.3509019
Phuket,RestDay Cycling & Cafe,7.8856468,98.3947616
Phuket,Starbucks Reserve,7.8917336,98.3676378
Phuket,good•for•rest,7.9974316,98.3912039
Phuket,Slow Thrive coffee house,7.9030931,98.3753711
Phuket,Leap coffee,8.099606,98.3071851
Phuket,Coffee Talk,7.9994244,98.3065971
Phuket,Raga coffee and homemade bakery,7.8122517,98.3386294
Phuket,KenKen Coffee,7.7926651,98.3162016
Phuket,The Remedy,7.8523599,98.345702
Phuket,Rees Coffee (Phuket Domestic Airport),8.1102678,98.3046168
Phuket,Boo Coffee,7.9565213,98.3876681
Phuket,HOUSE Cafe,7.8849467,98.3875613
Phuket,HOCKHOELEE - The Original Phuket Coffee Roaster,7.800097,98.3353609999999
Phuket,Drop espresso,7.9083493,98.3487953
Phuket,The Espresso Bar Kamala,7.9410941,98.2933648
Phuket,Coffee Mania,7.885912,98.29751
Phuket,Witthaya Brew Speciality Coffee,7.7988103,98.3350172
Phuket,Gomunoki•Slow Bar,7.8281393,98.3346124
Phuket,Good Cafe,7.9152473,98.3707794
Phuket,NIÑA Beach Camp,8.0269206,98.4602415
Phuket,Moonstone cafe at Visit Panwa,7.8292864,98.4061595
Phuket,Hé House Home Cafe: เหอ-เฮาส์,7.8848981,98.3880267
Phuket,Wewii Cafe & Bistro,7.9950206,98.3007704
Phuket,B SLOW BAR,7.8831256,98.3899411
Phuket,Phuket Roastery,7.9015128,98.3790905
Phuket,Hohiho Restaurant & Cafe Phuket,7.8173753,98.3317693
Phuket,Street Craft Coffee by Uncle neng คราฟ-คอฟฟี่-บาย-ลุงเหน่ง,7.8864061,98.3750171
Phuket,คืนรัก Home Roastery,8.0701835,98.3440264
Phuket,NS coffee in factory,8.0086982,98.3355993
Phuket,SUKr Coffee,8.2567621,98.2998857
Phuket,TONE,8.2435968,98.2974073
Phuket,กฤษณาวารี specialty coffee,8.8641513,98.3419782
Phuket,Check Shot Coffee,7.9076943,98.3919454
Phuket,Dreamilycoffeebar.,7.9891006,98.3025456
Phuket,Leikki Neighbourhood Cafe,7.8137817,98.33896
Phuket,Room coffee’ (slow bar)@Bangtao,7.983314,98.2991498
Phuket,Zigma Espresso Chalong,7.8380531,98.3497772
Phuket,Sixory Coffee,7.8853523,98.3875928
Phuket,Hideaway Cafe@Saku,8.0664787,98.2945941
Phuket,Rise N Grind Coffee and cake,7.7787079,98.3256311
Phuket,MONDO Espresso & Tea Bar,7.8849195,98.3875522
Phuket,Liberica Coffee,7.7916074,98.3169731
Phuket,surf point,7.785207,98.3174549
